     3.03           OBSERVATION DATA    M: Mixed            RINEX VERSION / TYPE
RTKCONV demo5 b31   Joe Adams           20190327 162258 UTC PGM / RUN BY / DATE 
log: H:\Data\Colorado\2019-0326-Fed-Center\CWW_PPK_Files_2  COMMENT             
format: ComNav                                              COMMENT             
CWW-PPK-v2                                                  MARKER NAME         
                                                            MARKER NUMBER       
                                                            MARKER TYPE         
                    USGS                                    OBSERVER / AGENCY   
                                                            REC # / TYPE / VERS 
CNTAT190                                                    ANT # / TYPE        
        0.0000        0.0000        0.0000                  APPROX POSITION XYZ 
        0.0000        0.0000        0.0000                  ANTENNA: DELTA H/E/N
G   12 C1C L1C D1C S1C C2D L2D D2D S2D C2X L2X D2X S2X      SYS / # / OBS TYPES 
R    8 C1C L1C D1C S1C C2C L2C D2C S2C                      SYS / # / OBS TYPES 
S    4 C1C L1C D1C S1C                                      SYS / # / OBS TYPES 
  2019     3    26    21    32   27.5000000     GPS         TIME OF FIRST OBS   
  2019     3    26    21    54   17.0000000     GPS         TIME OF LAST OBS    
G                                                           SYS / PHASE SHIFT   
R                                                           SYS / PHASE SHIFT   
S                                                           SYS / PHASE SHIFT   
  0                                                         GLONASS SLOT / FRQ #
 C1C    0.000 C1P    0.000 C2C    0.000 C2P    0.000        GLONASS COD/PHS/BIS 
                                                            END OF HEADER       
> 2019  3 26 21 32 27.5000000  0  9                     
G30                              2                         45.000                                                                                                                                  
G17  21604124.875   117413473.492        2286.797          45.000                                                                                                                                  
G11  21670851.750   117480920.914        -597.074          42.000                                                                                                                                  
G13  22199767.148   117455724.758         466.207          43.000                                                                                                                                  
G 1  22343927.328   117434358.105        1346.734          41.000                                                                                                                                  
G18  22644714.586   117477085.348        -387.496          40.000                                                                                                                                  
G15  24367965.789   125823299.566        1385.773          43.000                                                                                                                                  
G 8  24595964.461   125937055.410       -3508.965          42.000                                                                                                                                  
S31                                                        41.000  
> 2019  3 26 21 32 28.0000000  0  9                     
G30                              2                         45.000                                                                                                                                  
G17  21603908.148   117412109.305        2286.438          45.000                                                                    21603918.812    84431219.4841       1781.715          45.000  
G11  21670909.797   117480998.512        -597.715          42.000    21670919.117    92314607.191        -465.848          26.000                                                                  
G13  22199723.719   117455270.664         465.957          43.000    22199731.922    92289929.523         363.129          24.000                                                                  
G 1  22343800.016   117433463.934        1346.426          41.000    22343808.719    92269570.5511       1049.203          24.000    22343812.469    92821876.5121       1049.113          44.000  
G18  22644752.023   117477057.965        -388.051          41.000    22644760.961    92340661.9531       -302.441          21.000                                                                  
G15  24367834.930   125822385.734        1385.609          44.000    24367843.633   100657265.9101       1079.703          25.000                                                                  
G 8  24596299.055   125938588.625       -3509.383          43.000    24596312.508   100771142.988       -2734.594          26.000    24596313.078   101220960.9531      -2734.117          45.000  
S31                                                        41.000  
> 2019  3 26 21 32 40.0000000  0 15                     
G30  20328768.625   109107046.1051       -928.059          45.000    20328779.477    83939085.5621       -723.113          31.000    20328780.266    84588071.5311       -723.117          46.000  
G28                                                        43.000                                                          29.000                                                                  
G17  21598692.391   117381322.902        2280.715          45.000    21598702.594    92223843.129        1777.223          29.000    21598702.266    84407230.102        1777.293          45.000  
G11  21672282.672   117484837.578        -606.016          42.000    21672290.594    92317598.688        -472.168          25.000                                                                  
G19  23743515.711   125838801.0621       3717.906          39.000    23743525.758   100717184.6881       2897.047          23.000                                                                  
G13  22198668.430   117446347.188         457.293          43.000    22198677.547    92282976.152         356.285          25.000                                                                  
G 1  22340731.781   117413972.980        1338.574          40.000    22340746.422    92254382.797        1043.090          25.000    22340745.000    92806688.762        1043.066          44.000  
G18  22645645.555   117478379.414        -396.238          40.000    22645655.695    92341691.680        -308.785          20.000                                                                  
G 7  21936017.750   117479377.8481      -2672.727          43.000    21936028.070    92329255.4021      -2082.637          25.000    21936027.680    93123963.379       -2082.508          43.000  
G15  24364676.609   125802419.402        1378.320          43.000    24364688.070   100641707.723        1073.965          25.000    24364687.531   101195026.688        1073.914          43.000  
G 8  24604312.492   125977320.992       -3510.078          42.000    24604325.273   100801324.027       -2735.094          26.000    24604325.766   101251142.020       -2735.020          44.000  
G 4                              1                         39.000                                3                         22.000                                3                         44.000  
S35                                                        41.000  
S33                              1                         42.000  
S31                                                        41.000  
> 2019  3 26 21 32 41.0000000  0 15                     
G30  20328946.234   109107859.137        -928.715          45.000    20328956.609    83939719.094        -723.707          31.000    20328957.016    84588705.070        -723.621          47.000  
G28                                                        43.000                                                          29.000                                                                  
G17  21598258.367   117378927.035        2280.230          45.000    21598269.070    92221976.230        1776.727          29.000    21598268.922    84405363.191        1776.891          45.000  
G11  21672398.617   117485328.766        -607.102          42.000    21672406.578    92317981.434        -473.016          27.000                                                                  
G19  23742808.031   125834968.699        3717.473          38.000    23742818.945   100714198.426        2896.746          24.000                                                                  
G13  22198581.656   117445774.801         456.730          44.000    22198591.250    92282530.168         355.836          25.000                                                                  
G 1  22340478.102   117412519.566        1337.758          40.000    22340492.297    92253250.270        1042.445          25.000    22340490.125    92805556.246        1042.430          44.000  
G18  22645721.562   117478661.000        -397.000          41.000    22645731.875    92341911.102        -309.398          22.000                                                                  
G 7  21936526.656   117481935.555       -2673.074          42.000    21936537.125    92331248.414       -2082.871          25.000    21936536.508    93125956.395       -2083.203          43.000  
G15  24364415.516   125800926.055        1377.867          43.000    24364426.383   100640544.090        1073.766          25.000    24364426.484   101193863.039        1073.797          43.000  
G 8  24604980.859   125980715.977       -3510.066          42.000    24604993.727   100803969.508       -2735.156          26.000    24604994.641   101253787.473       -2735.352          44.000  
G 4                                                                                                                                                                                        44.000  
S35                                                        41.000  
S33                                                        42.000  
S31                                                        42.000  
> 2019  3 26 21 32 42.0000000  0 15                     
G30  20329122.656   109108698.664        -928.434          45.000    20329133.188    83940373.266        -723.445          31.000    20329133.711    84589359.242        -723.328          47.000  
G28                                                        43.000                                                          30.000                                                                  
G17  21597824.242   117376557.547        2280.395          45.000    21597834.969    92220129.875        1776.984          29.000    21597835.250    84403516.844        1776.961          45.000  
G11  21672513.914   117485846.559        -606.453          42.000    21672521.719    92318384.918        -472.625          25.000                                                                  
G19  23742101.062   125831162.508        3717.223          38.000    23742111.344   100711232.574        2896.520          24.000                                                                  
G13  22198494.844   117445229.043         456.531          44.000    22198504.375    92282104.855         355.789          24.000                                                                  
G 1  22340223.617   117411092.723        1337.812          40.000    22340237.672    92252138.457        1042.379          25.000    22340236.070    92804444.406        1042.664          44.000  
G18  22645796.586   117478969.242        -397.523          41.000    22645807.234    92342151.273        -309.746          21.000                                                                  
G 7  21937035.062   117484519.598       -2672.773          43.000    21937045.531    92333261.969       -2082.695          25.000    21937045.211    93127969.934       -2082.590          43.000  
G15  24364153.000   125799459.234        1377.840          43.000    24364163.992   100639401.090        1073.680          26.000    24364165.438   101192720.051        1073.938          43.000  
G 8  24605648.219   125984136.973       -3509.520          42.000    24605661.516   100806635.191       -2734.707          26.000    24605662.195   101256453.184       -2734.812          44.000  
G 4                                                                                                                                                                                        44.000  
S35                                                        41.000  
S33                                                        42.000  
S31                                                        42.000  
> 2019  3 26 21 32 43.0000000  0 15                     
G30  20329299.797   109109564.402        -929.852          45.000    20329310.336    83941047.879        -724.562          31.000    20329310.891    84590033.840        -724.535          47.000  
G28                                                        43.000                                                          29.000                                                                  
G17  21597390.570   117374214.148        2279.590          45.000    21597401.297    92218303.836        1776.301          29.000    21597401.211    84401690.820        1776.277          45.000  
G11  21672629.680   117486390.707        -608.258          42.000    21672637.594    92318808.910        -474.043          26.000                                                                  
G19  23741393.445   125827382.156        3717.645          39.000    23741404.430   100708286.848        2896.938          24.000                                                                  
G13  22198408.438   117444709.602         455.363          44.000    22198417.898    92281700.094         354.723          25.000                                                                  
G 1  22339969.438   117409692.160        1336.664          41.000    22339983.617    92251047.102        1041.551          25.000    22339982.430    92803353.078        1041.379          44.000  
G18  22645872.562   117479303.875        -399.031          41.000    22645883.266    92342412.008        -310.953          21.000                                                                  
G 7  21937543.711   117487129.715       -2674.098          43.000    21937554.375    92335295.809       -2083.613          26.000    21937554.992    93130003.777       -2083.594          43.000  
G15  24363891.367   125798018.641        1376.516          43.000    24363902.203   100638278.562        1072.512          26.000    24363902.422   101191597.516        1072.836          43.000  
G 8  24606316.617   125987583.738       -3510.578          42.000    24606329.727   100809320.980       -2735.570          27.000    24606330.734   101259138.957       -2735.523          44.000  
G 4                                                                                                                                                                                        44.000  
S35                                                        41.000  
S33                                                        42.000  
S31                                                        42.000  
> 2019  3 26 21 32 44.0000000  0 16                     
G30  20329474.805   109110456.727        -929.527          45.000    20329485.672    83941743.188        -724.297          31.000    20329486.062    84590729.164        -724.359          47.000  
G28                                                        43.000                                                          29.000                                                                  
G17  21596955.414   117371897.254        2279.641          45.000    21596965.742    92216498.492        1776.270          29.000    21596966.438    84399885.453        1776.457          45.000  
G11  21672743.969   117486961.590        -608.023          43.000    21672751.680    92319253.766        -473.840          26.000                                                                  
G19  23740686.102   125823628.055        3716.941          39.000    23740695.648   100705361.594        2896.289          24.000                                                                  
G13  22198320.180   117444216.902         455.254          44.000    22198329.703    92281316.199         354.727          26.000                                                                  
G 1  22339713.320   117408318.266        1336.738          41.000    22339727.586    92249976.555        1041.578          25.000    22339726.562    92802282.504        1041.750          44.000  
G18  22645947.141   117479665.242        -398.941          41.000    22645957.883    92342693.621        -310.859          22.000                                                                  
G 7  21938051.617   117489766.273       -2673.965          43.000    21938061.562    92337350.266       -2083.613          25.000    21938061.711    93132058.254       -2083.434          43.000  
G15  24363628.000   125796604.664        1376.805          43.000    24363638.523   100637176.773        1072.789          25.000    24363638.633   101190495.730        1072.797          43.000  
G 8  24606983.031   125991056.582       -3509.828          42.000    24606996.195   100812027.098       -2734.926          27.000    24606996.727   101261845.070       -2734.980          44.000  
G 4                                                                                                                                                                                        44.000  
S35                                                        42.000  
S33                                                        42.000  
S38                              2                         42.000  
S31                                                        42.000  
> 2019  3 26 21 32 45.0000000  0 16                     
G30  20329652.211   109111374.738        -930.324          45.000    20329663.094    83942458.516        -724.930          31.000    20329663.773    84591444.492        -724.742          46.000  
G28                                                        43.000                                                          29.000                                                                  
G17  21596522.414   117369605.934        2279.090          45.000    21596532.422    92214713.047        1775.941          30.000    21596533.062    84398100.012        1775.902          45.000  
G11  21672859.875   117487558.301        -609.195          42.000    21672867.945    92319718.719        -474.688          25.000                                                                  
G19  23739978.680   125819899.273        3716.883          39.000    23739988.555   100702456.051        2896.148          23.000                                                                  
G13  22198233.938   117443750.031         454.422          44.000    22198243.750    92280952.406         354.141          24.000                                                                  
G 1  22339459.680   117406970.145        1335.953          41.000    22339473.875    92248926.059        1041.059          25.000    22339471.812    92801232.020        1041.004          44.000  
G18  22646024.141   117480052.461        -399.852          40.000    22646034.102    92342995.320        -311.367          22.000                                                                  
G 7  21938561.156   117492428.375       -2674.406          42.000    21938570.648    92339424.645       -2084.000          25.000    21938570.797    93134132.613       -2084.125          43.000  
G15  24363366.000   125795216.406        1375.867          43.000    24363377.227   100636095.012        1072.094          25.000    24363377.492   101189413.957        1072.230          43.000  
G 8  24607651.852   125994554.613       -3510.195          42.000    24607664.492   100814752.832       -2735.109          26.000    24607664.945   101264570.812       -2735.102          44.000  
G 4                                                                                                                                                                                        44.000  
S35                                                        42.000  
S33                                                        42.000  
S38                                                        41.000  
S31                                                        41.000  
> 2019  3 26 21 32 46.0000000  0 16                     
G30  20329829.695   109112304.223        -930.422          45.000    20329840.148    83943182.770        -724.984          31.000    20329840.969    84592168.770        -725.266          46.000  
G28                                                        43.000                                                          29.000                                                                  
G17  21596088.539   117367325.992        2279.105          45.000    21596098.789    92212936.438        1775.938          29.000    21596098.945    84396323.438        1775.777          44.000  
G11  21672976.422   117488166.617        -609.484          42.000    21672983.828    92320192.719        -474.887          26.000                                                                  
G19  23739271.367   125816181.672        3716.625          38.000    23739281.328   100699559.176        2896.156          24.000                                                                  
G13  22198147.797   117443294.762         454.324          44.000    22198157.391    92280597.621         353.984          24.000                                                                  
G 1  22339205.578   117405633.570        1335.621          41.000    22339219.664    92247884.547        1040.812          25.000    22339218.250    92800190.547        1040.574          44.000  
G18  22646100.172   117480451.352        -400.074          41.000    22646110.320    92343306.125        -311.719          22.000                                                                  
G 7  21939069.641   117495101.824       -2674.609          43.000    21939079.445    92341507.832       -2084.117          26.000    21939080.570    93136215.809       -2083.980          42.000  
G15  24363104.398   125793839.652        1375.488          43.000    24363115.617   100635022.184        1071.777          26.000    24363115.578   101188341.172        1071.914          43.000  
G 8  24608319.812   125998063.676       -3509.840          42.000    24608332.469   100817487.137       -2734.891          26.000    24608333.500   101267305.133       -2734.984          44.000  
G 4                                                                                                                                                                                        43.000  
S35                                                        42.000  
S33                                                        42.000  
S38                                                        42.000  
S31                                                        41.000  
> 2019  3 26 21 32 47.0000000  0 16                     
G30  20330007.367   109113231.008        -931.418          45.000    20330017.953    83943904.945        -725.828          32.000    20330018.430    84592890.938        -725.879          47.000  
G28                                                        43.000                                                          29.000                                                                  
G17  21595655.969   117365043.254        2277.977          45.000    21595665.852    92211157.684        1775.059          30.000    21595665.617    84394544.668        1775.172          44.000  
G11  21673092.672   117488772.363        -610.668          42.000    21673100.516    92320664.758        -475.879          26.000                                                                  
G19  23738564.836   125812460.984        3716.512          39.000    23738574.664   100696659.973        2895.910          24.000                                                                  
G13  22198062.648   117442836.922         453.066          43.000    22198071.766    92280240.855         353.051          24.000                                                                  
G 1  22338951.766   117404294.355        1334.652          41.000    22338965.938    92246840.980        1039.961          25.000    22338964.781    92799146.996        1040.109          44.000  
G18  22646176.852   117480847.672        -401.000          41.000    22646187.086    92343614.957        -312.523          22.000                                                                  
G 7  21939579.047   117497772.422       -2675.516          43.000    21939589.047    92343588.812       -2084.738          26.000    21939589.516    93138296.793       -2084.527          42.000  
G15  24362843.164   125792460.211        1374.898          43.000    24362854.703   100633947.293        1071.301          26.000    24362854.703   101187266.289        1070.898          42.000  
G 8  24608987.555   126001569.574       -3510.492          42.000    24609000.969   100820219.012       -2735.492          27.000    24609001.984   101270037.000       -2735.312          44.000  
G 4                                                                                                                                                                                        43.000  
S35                                                        41.000  
S33                                                        42.000  
S38                                                        42.000  
S31                                                        42.000  
> 2019  3 26 21 32 48.0000000  0 15                     
G30  20330184.977   109114157.141        -931.730          45.000    20330195.562    83944626.613        -726.016          31.000    20330196.531    84593612.594        -725.980          47.000  
G28                                                        43.000                                                          30.000                                                                  
G17  21595222.812   117362759.750        2277.945          45.000    21595232.594    92209378.336        1775.035          29.000    21595233.344    84392765.324        1774.715          44.000  
G11  21673209.305   117489377.598        -611.000          42.000    21673216.969    92321136.332        -476.168          26.000                                                                  
G19  23737857.211   125808739.340        3716.125          38.000    23737867.961   100693759.992        2895.715          23.000                                                                  
G13  22197976.148   117442378.566         452.934          43.000    22197985.883    92279883.688         353.078          25.000                                                                  
G 1  22338698.562   117402954.594        1333.863          41.000    22338712.250    92245797.039        1039.336          25.000    22338710.977    92798103.008        1039.609          44.000  
G18  22646253.750   117481243.516        -401.102          41.000    22646263.805    92343923.402        -312.613          21.000                                                                  
G 7  21940088.766   117500442.215       -2675.375          43.000    21940098.422    92345669.141       -2084.738          25.000    21940098.805    93140377.156       -2084.535          43.000  
G15  24362582.297   125791080.152        1374.480          43.000    24362593.289   100632871.938        1070.965          25.000    24362593.320   101186190.922        1070.891          43.000  
G 8  24609656.516   126005074.328       -3510.219          42.000    24609669.414   100822949.996       -2735.316          26.000    24609670.078   101272767.973       -2735.090          44.000  
S35                                                        42.000  
S33                                                        42.000  
S38                                                        41.000  
S31                                                        42.000  
> 2019  3 26 21 32 49.0000000  0 22                     
G30  20330360.086   109115083.281        -932.609          45.000    20330370.875    83945348.270        -726.680          31.000    20330371.891    84594334.266        -726.734          46.000  
G28                                                        43.000                                                          29.000                                                                  
G17  21594787.344   117360476.156        2277.375          45.000    21594797.133    92207598.922        1774.570          29.000    21594797.938    84390985.906        1774.230          44.000  
G11  21673324.133   117489982.973        -611.648          42.000    21673331.227    92321608.070        -476.719          25.000                                                                  
G19  23737149.102   125805017.355        3715.555          39.000    23737158.836   100690859.715        2895.324          25.000                                                                  
G13  22197887.938   117441920.359         451.633          43.000    22197897.781    92279526.664         351.949          25.000                                                                  
G 1  22338442.672   117401614.906        1333.023          41.000    22338456.484    92244753.113        1038.785          25.000    22338455.359    92797059.105        1038.656          44.000  
G18  22646328.742   117481639.559        -402.535          41.000    22646338.336    92344232.031        -313.684          21.000                                                                  
G 7  21940595.906   117503111.898       -2676.039          43.000    21940605.633    92347749.461       -2085.270          26.000    21940605.938    93142457.426       -2085.273          42.000  
G15  24362319.008   125789700.152        1373.605          43.000    24362329.773   100631796.602        1070.383          25.000    24362330.297   101185115.582        1070.160          42.000  
G 8  24610322.312   126008578.598       -3510.195          42.000    24610335.234   100825680.586       -2735.156          26.000    24610336.617   101275498.590       -2735.586          44.000  
R20  19834678.664   108978638.191        2102.652          36.000    19834685.242    83837003.086        1636.117          40.000  
R 9  20029087.000   109121477.418       -1067.926          43.000    20029090.992    83947872.1021       -831.113          44.000  
R19  20805965.406   109145848.059       -2535.934          37.000    20805968.656    83977347.1051      -1972.270          37.000  
R 1  23272843.211   125887283.113        -939.844          39.000    23272851.031   100718898.5431       -731.023          36.000  
R 8  23437782.289   125901129.453       -3025.934          39.000    23437784.508   100732817.4181      -2353.492          38.000  
R21  23307072.852   125754268.9061       4544.809          39.000    23307078.406   100621735.7191       3533.961          39.000  
R10  20058020.352   109065079.230        1793.484          44.000    20058027.609    83923367.273        1394.961          38.000  
S35                                                        41.000  
S33                                                        42.000  
S38                                                        41.000  
S31                                                        42.000  
> 2019  3 26 21 32 50.0000000  0 22                     
G30  20330537.781   109116009.875        -933.016          45.000    20330548.297    83946070.301        -727.012          31.000    20330549.336    84595056.281        -726.902          47.000  
G28                                                        43.000                                                          29.000                                                                  
G17  21594354.305   117358192.914        2276.984          45.000    21594363.820    92205819.766        1774.289          29.000    21594364.945    84389206.750        1774.051          45.000  
G11  21673440.836   117490588.934        -612.086          42.000    21673447.734    92322080.250        -476.863          26.000                                                                  
G19  23736443.305   125801295.469        3715.805          38.000    23736451.570   100687959.582        2895.289          24.000                                                                  
G13  22197802.000   117441462.734         451.309          44.000    22197811.703    92279170.066         351.777          24.000                                                                  
G 1  22338188.852   117400275.730        1332.859          41.000    22338202.758    92243709.621        1038.559          26.000    22338201.195    92796015.586        1038.809          44.000  
G18  22646404.578   117482036.199        -403.168          41.000    22646414.797    92344541.082        -314.156          22.000                                                                  
G 7  21941105.336   117505781.863       -2676.215          43.000    21941114.758    92349829.941       -2085.324          26.000    21941114.680    93144537.922       -2085.312          43.000  
G15  24362057.758   125788320.594        1373.297          42.000    24362068.367   100630721.637        1070.148          26.000    24362068.859   101184040.598        1070.129          43.000  
G 8  24610990.266   126012082.840       -3510.227          41.000    24611003.211   100828411.184       -2735.297          27.000    24611004.234   101278229.164       -2735.336          44.000  
R20  19834285.453   108976528.383        2104.488          36.000    19834291.945    83835362.215        1636.004          40.000  
R 9  20029286.867   109122539.133       -1068.219          43.000    20029291.188    83948697.875        -830.672          45.000  
R19  20806439.234   109148377.711       -2536.965          36.000    20806442.586    83979314.594       -1972.527          38.000  
R 1  23273019.141   125888216.188        -939.828          39.000    23273027.094   100719624.270        -730.992          36.000  
R 8  23438347.625   125904149.426       -3026.047          39.000    23438349.977   100735166.281       -2353.574          38.000  
R21  23306223.711   125749718.195        4544.621          40.000    23306229.461   100618196.258        3534.754          39.000  
R10  20057684.258   109063279.625        1792.945          44.000    20057691.445    83921967.582        1394.480          38.000  
S35                                                        41.000  
S33                                                        42.000  
S38                                                        41.000  
S31                                                        42.000  
> 2019  3 26 21 32 51.0000000  0 22                     
G30  20330715.312   109116936.367        -933.734          45.000    20330725.984    83946792.246        -727.641          32.000    20330727.172    84595778.227        -727.453          47.000  
G28                                                        43.000                                                          29.000                                                                  
G17  21593920.719   117355909.465        2276.410          45.000    21593930.680    92204040.461        1773.836          30.000    21593930.922    84387427.449        1773.547          44.000  
G11  21673557.109   117491194.941        -613.098          42.000    21673564.531    92322552.469        -477.750          26.000                                                                  
G19  23735735.945   125797573.148        3715.184          39.000    23735744.484   100685059.090        2894.953          24.000                                                                  
G13  22197716.070   117441005.148         450.340          43.000    22197726.000    92278813.508         350.832          25.000                                                                  
G 1  22337935.336   117398936.531        1332.305          41.000    22337949.328    92242666.074        1038.168          25.000    22337948.312    92794972.086        1037.590          44.000  
G18  22646481.914   117482432.918        -404.020          41.000    22646491.422    92344850.215        -314.820          22.000                                                                  
G 7  21941614.844   117508451.605       -2676.633          44.000    21941624.078    92351910.270       -2085.672          26.000    21941624.570    93146618.246       -2085.832          42.000  
G15  24361796.453   125786940.984        1372.578          43.000    24361807.141   100629646.621        1069.605          25.000    24361806.703   101182965.582        1069.535          43.000  
G 8  24611657.695   126015586.520       -3510.656          42.000    24611671.312   100831141.316       -2735.578          26.000    24611672.750   101280959.293       -2735.562          44.000  
R20  19833892.023   108974418.984        2101.332          37.000    19833898.586    83833721.508        1634.879          40.000  
R 9  20029487.070   109123600.656       -1069.477          43.000    20029491.188    83949523.480        -831.102          45.000  
R19  20806913.297   109150907.379       -2536.703          38.000    20806917.078    83981282.137       -1973.051          37.000  
R 1  23273195.242   125889149.387        -940.457          38.000    23273202.633   100720350.074        -731.461          36.000  
R 8  23438912.477   125907169.098       -3026.848          39.000    23438914.883   100737514.906       -2354.172          38.000  
R21  23305374.445   125745166.984        4544.199          39.000    23305380.336   100614656.434        3534.344          39.000  
R10  20057347.648   109061479.652        1792.883          44.000    20057355.008    83920567.594        1394.477          38.000  
S35                                                        42.000  
S33                                                        42.000  
S38                                                        41.000  
S31                                                        42.000  
> 2019  3 26 21 32 52.0000000  0 22                     
G30  20330892.648   109117863.027        -934.180          45.000    20330902.984    83947514.324        -727.957          32.000    20330904.414    84596500.289        -727.750          47.000  
G28                                                        42.000                                                          30.000                                                                  
G17  21593487.664   117353626.070        2276.098          45.000    21593496.875    92202261.195        1773.570          30.000    21593496.570    84385648.172        1773.383          45.000  
G11  21673673.008   117491801.234        -613.988          42.000    21673680.898    92323024.906        -478.426          26.000                                                                  
G19  23735029.555   125793850.633        3715.027          38.000    23735036.805   100682158.391        2894.887          23.000                                                                  
G13  22197630.164   117440547.840         449.781          43.000    22197639.625    92278457.168         350.402          26.000                                                                  
G 1  22337681.422   117397597.605        1331.477          40.000    22337695.211    92241622.762        1037.629          25.000    22337694.039    92793928.730        1037.480          44.000  
G18  22646558.289   117482829.938        -404.566          41.000    22646567.703    92345159.613        -315.160          22.000                                                                  
G 7  21942123.945   117511121.363       -2677.016          43.000    21942132.773    92353990.590       -2086.008          26.000    21942133.109    93148698.566       -2086.059          42.000  
G15  24361534.742   125785561.559        1372.094          43.000    24361545.172   100628571.742        1069.086          25.000    24361545.000   101181890.707        1069.160          42.000  
G 8  24612326.109   126019089.855       -3510.371          42.000    24612338.781   100833871.176       -2735.289          27.000    24612340.586   101283689.168       -2735.547          44.000  
R20  19833498.555   108972309.957        2100.996          37.000    19833505.219    83832081.156        1634.328          40.000  
R 9  20029687.031   109124662.238       -1069.191          43.000    20029691.055    83950349.160        -831.438          45.000  
R19  20807386.984   109153437.438       -2537.633          38.000    20807391.000    83983249.949       -1973.730          37.000  
R 1  23273370.812   125890082.910        -940.594          39.000    23273378.227   100721076.152        -731.574          36.000  
R 8  23439477.602   125910188.688       -3027.285          39.000    23439479.875   100739863.473       -2354.582          38.000  
R21  23304525.320   125740615.531        4544.188          39.000    23304530.930   100611116.418        3534.125          40.000  
R10  20057010.930   109059679.594        1792.867          44.000    20057018.391    83919167.555        1394.422          38.000  
S35                                                        41.000  
S33                                                        42.000  
S38                                                        41.000  
S31                                                        42.000  
> 2019  3 26 21 32 53.0000000  0 18                     
G30  20331071.258   109118789.871        -936.996          45.000    20331081.586    83948236.527        -730.172          31.000    20331082.695    84597222.516        -730.090          47.000  
G28                                                        43.000                                                          29.000                                                                  
G17  21593055.078   117351342.777        2273.113          45.000    21593064.680    92200481.996        1771.309          29.000    21593064.656    84383868.977        1771.422          44.000  
G11  21673790.375   117492407.867        -616.777          42.000    21673798.516    92323497.570        -480.645          26.000                                                                  
G19  23734319.805   125790128.016        3712.859          38.000    23734330.531   100679257.672        2893.109          23.000                                                                  
G13  22197545.766   117440090.891         446.645          43.000    22197554.703    92278101.086         347.977          24.000                                                                  
G 1  22337429.219   117396258.926        1328.238          41.000    22337442.570    92240579.641        1034.965          25.000    22337441.508    92792885.617        1035.121          44.000  
G18  22646635.891   117483227.336        -407.566          41.000    22646645.562    92345469.238        -317.391          22.000                                                                  
G 7  21942634.000   117513791.176       -2679.734          43.000    21942642.836    92356070.961       -2088.102          25.000    21942643.750    93150778.953       -2088.273          42.000  
G15  24361274.312   125784182.363        1369.078          42.000    24361285.016   100627497.027        1066.887          25.000    24361285.188   101180816.012        1066.816          42.000  
G 8  24612995.016   126022592.918       -3513.102          41.000    24613007.695   100836600.840       -2737.523          26.000    24613008.883   101286418.820       -2737.211          44.000  
R 9                                                                  20029891.617    83951174.047        -827.559          45.000  
R 1  23273547.516   125891015.957        -937.695          39.000                                                                  
R21  23303676.383   125736062.934        4548.203          39.000    23303682.234   100607575.422        3538.770          40.000  
S35                                                        41.000  
S33                                                        42.000  
S38                                                        41.000  
S31                                                        41.000  
> 2019  3 26 21 32 54.0000000  0 20                     
G30  20331249.508   109119721.727        -935.043          45.000    20331259.859    83948962.656        -728.602          31.000    20331261.875    84597948.637        -728.789          47.000  
G28                                                        43.000                                                          29.000                                                                  
G17  21592622.742   117349064.383        2275.066          45.000    21592632.094    92198706.621        1772.816          29.000    21592632.336    84382093.602        1772.910          45.000  
G11  21673907.789   117493019.633        -615.207          42.000    21673915.922    92323974.293        -479.383          25.000                                                                  
G19  23733614.828   125786410.027        3714.430          39.000    23733623.898   100676360.547        2894.320          24.000                                                                  
G13  22197460.656   117439639.062         448.551          43.000    22197469.703    92277749.020         349.492          25.000                                                                  
G 1  22337176.578   117394925.344        1330.066          41.000    22337189.516    92239540.477        1036.344          24.000    22337189.180    92791846.457        1036.477          44.000  
G18  22646713.508   117483629.883        -405.930          41.000    22646723.008    92345782.906        -316.195          21.000                                                                  
G 7  21943144.133   117516465.863       -2677.875          43.000    21943152.742    92358155.160       -2086.602          26.000    21943154.547    93152863.125       -2086.594          42.000  
G15  24361013.719   125782808.199        1370.891          43.000    24361024.594   100626426.258        1068.219          27.000    24361024.922   101179745.223        1068.410          42.000  
G 8  24613663.312   126026100.500       -3510.758          42.000    24613676.250   100839334.035       -2735.656          26.000    24613677.172   101289152.008       -2735.453          44.000  
R20  19832629.539   108968098.8201       2098.750          37.000    19832635.469    83828806.0161       1632.980          40.000  
R 9  20030003.453   109126790.5431      -1070.207          43.000    20030007.164    83952003.457        -832.309          45.000  
R 1  23273638.562   125891955.020        -942.750          39.000                                                                  
R21  23302742.508   125731515.746        4544.051          39.000    23302748.320   100604038.637        3534.488          39.000  
R10  20056254.344   109056084.8711       1792.004          44.000    20056261.797    83916371.1721       1393.781          38.000  
S35                                                        41.000  
S33                                                        42.000  
S38                                                        42.000  
S31                                                        41.000  
> 2019  3 26 21 32 55.0000000  0 22                     
G30  20331427.219   109120655.762        -935.742          45.000    20331437.625    83949690.465        -729.172          32.000    20331439.047    84598676.453        -728.965          47.000  
G28                                                        43.000                                                          30.000                                                                  
G17  21592189.188   117346788.055        2274.945          45.000    21592198.883    92196932.871        1772.602          30.000    21592199.484    84380319.855        1772.508          45.000  
G11  21674025.422   117493633.719        -615.867          42.000    21674032.969    92324452.809        -479.941          26.000                                                                  
G19  23732907.461   125782693.875        3714.305          39.000    23732916.719   100673464.824        2894.355          24.000                                                                  
G13  22197375.227   117439189.539         447.844          43.000    22197383.977    92277398.754         348.980          25.000                                                                  
G 1  22336923.336   117393594.000        1329.551          41.000    22336936.008    92238503.070        1035.957          25.000    22336935.805    92790809.051        1036.094          44.000  
G18  22646790.617   117484034.793        -406.812          41.000    22646800.141    92346098.426        -317.008          22.000                                                                  
G 7  21943653.383   117519142.582       -2678.355          43.000    21943662.141    92360240.887       -2086.973          26.000    21943662.828    93154948.875       -2086.793          43.000  
G15  24360752.711   125781436.234        1370.410          43.000    24360763.266   100625357.180        1067.793          26.000    24360764.031   101178676.176        1067.680          42.000  
G 8  24614330.555   126029609.773       -3510.492          42.000    24614344.039   100842068.508       -2735.426          27.000    24614344.945   101291886.516       -2735.637          44.000  
R20  19832237.023   108965998.148        2099.066          37.000    19832242.469    83827172.168        1632.262          40.000  
R 9  20030203.820   109127859.262       -1070.320          43.000    20030207.375    83952834.691        -832.402          45.000  
R19  20808727.102   109161041.8091      -2538.793          37.000    20808730.555    83989165.1211      -1975.902          37.000  
R 1  23273814.812   125892896.633        -942.762          39.000    23273821.672   100723264.8591       -733.293          36.000  
R 8  23441089.469   125919259.5391      -3028.172          39.000                                                                  
R21  23301893.469   125726970.543        4544.066          40.000    23301899.055   100600503.500        3534.316          39.000  
R10  20055918.008   109054291.551        1791.781          44.000    20055925.258    83914976.367        1393.590          38.000  
S35                                                        41.000  
S33                                                        42.000  
S38                                                        41.000  
S31                                                        41.000  
> 2019  3 26 21 32 56.0000000  0 22                     
G30  20331605.438   109121591.508        -935.703          45.000    20331615.773    83950419.625        -729.066          31.000    20331617.039    84599405.609        -729.277          47.000  
G28                                                        43.000                                                          29.000                                                                  
G17  21591756.406   117344513.367        2274.387          45.000    21591765.969    92195160.391        1772.301          30.000    21591766.883    84378547.348        1772.406          45.000  
G11  21674142.977   117494249.664        -616.199          42.000    21674150.266    92324932.773        -480.047          26.000                                                                  
G19  23732199.164   125778979.074        3713.719          38.000    23732209.617   100670570.191        2893.730          25.000                                                                  
G13  22197290.461   117438741.887         447.359          43.000    22197298.625    92277049.918         348.676          25.000                                                                  
G 1  22336670.289   117392264.441        1329.520          41.000    22336682.711    92237467.062        1035.977          25.000    22336682.953    92789773.047        1035.688          44.000  
G18  22646868.234   117484441.609        -407.309          41.000    22646877.617    92346415.457        -317.426          22.000                                                                  
G 7  21944163.242   117521820.879       -2678.379          43.000    21944171.820    92362327.867       -2087.020          26.000    21944172.586    93157035.863       -2087.168          43.000  
G15  24360492.273   125780066.020        1369.926          43.000    24360502.391   100624289.496        1067.508          26.000    24360503.031   101177608.461        1067.648          42.000  
G 8  24614999.109   126033120.297       -3510.547          42.000    24615012.094   100844803.984       -2735.410          27.000    24615012.945   101294621.969       -2735.281          44.000  
R20  19831844.664   108963899.469        2098.676          37.000    19831850.250    83825539.875        1632.172          40.000  
R 9  20030403.945   109128929.676       -1070.383          43.000    20030407.844    83953667.238        -832.762          45.000  
R19  20809201.828   109163581.805       -2540.176          37.000    20809205.516    83991140.629       -1975.590          37.000  
R 1  23273991.312   125893840.227        -943.375          39.000    23273998.992   100723998.797        -733.723          36.000  
R 8  23441654.766   125922287.574       -3027.684          39.000                                                                  
R21  23301044.391   125722426.703        4543.754          39.000    23301049.617   100596969.387        3534.250          40.000  
R10  20055581.844   109052499.719        1791.934          44.000    20055589.148    83913582.719        1393.742          38.000  
S35                                                        41.000  
S33                                                        42.000  
S38                                                        41.000  
S31                                                        41.000  
> 2019  3 26 21 32 57.0000000  0 22                     
G30  20331783.508   109122527.723        -936.887          45.000    20331794.000    83951149.148        -729.996          31.000    20331795.281    84600135.125        -730.105          47.000  
G28                                                        43.000                                                          30.000                                                                  
G17  21591323.656   117342239.012        2273.695          45.000    21591333.102    92193388.164        1771.727          30.000    21591334.086    84376775.145        1771.551          45.000  
G11  21674259.883   117494866.207        -617.660          42.000    21674267.477    92325413.172        -481.352          25.000                                                                  
G19  23731492.438   125775264.473        3713.867          39.000    23731502.719   100667675.719        2893.996          25.000                                                                  
G13  22197205.031   117438294.824         446.133          43.000    22197213.430    92276701.562         347.684          25.000                                                                  
G 1  22336417.648   117390935.414        1328.559          41.000    22336429.703    92236431.449        1035.312          25.000    22336429.234    92788737.445        1034.895          44.000  
G18  22646944.961   117484848.988        -407.895          41.000    22646955.336    92346732.859        -317.738          22.000                                                                  
G 7  21944672.664   117524499.500       -2679.422          43.000    21944681.672    92364415.117       -2087.844          26.000    21944682.734    93159123.090       -2087.625          43.000  
G15  24360231.594   125778696.270        1369.273          43.000    24360241.812   100623222.156        1067.094          26.000    24360242.500   101176541.137        1066.973          42.000  
G 8  24615667.258   126036630.789       -3510.828          42.000    24615680.078   100847539.422       -2735.621          26.000    24615680.930   101297357.414       -2735.672          44.000  
R20  19831452.156   108961801.602        2096.895          36.000    19831457.828    83823908.172        1631.316          40.000  
R 9  20030604.625   109130000.434       -1071.531          43.000    20030608.266    83954500.043        -833.383          44.000  
R19  20809676.188   109166122.434       -2541.781          37.000    20809680.625    83993116.660       -1976.684          38.000  
R 1  23274167.867   125894784.488        -944.773          39.000    23274175.930   100724733.223        -734.773          36.000  
R 8  23442220.016   125925315.922       -3028.984          39.000                                                                  
R21  23300194.922   125717882.883        4543.297          39.000    23300200.484   100593435.320        3533.977          40.000  
R10  20055245.594   109050708.086        1791.172          44.000    20055253.086    83912189.219        1393.156          38.000  
S35                                                        41.000  
S33                                                        42.000  
S38                                                        42.000  
S31                                                        41.000  
> 2019  3 26 21 32 58.0000000  0 22                     
G30  20331961.688   109123463.926        -937.277          45.000    20331972.172    83951878.652        -730.352          31.000    20331973.273    84600864.633        -730.410          47.000  
G28                                                        43.000                                                          29.000                                                                  
G17  21590890.820   117339964.574        2273.133          45.000    21590900.297    92191615.867        1771.297          30.000    21590900.852    84375002.832        1771.520          45.000  
