% program   : RTKPOST ver.demo5 b31
% inp file  : H:\Data\Colorado\2019-0326-Fed-Center\CWW_PPK_Files_20190327_Joe_Adams\2019\0326\GPS\UAS\GP213208.obs
% inp file  : H:\Data\Colorado\2019-0326-Fed-Center\CWW_PPK_Files_20190327_Joe_Adams\2019\0326\GPS\ctmc\ctmc0850.19o
% inp file  : H:\Data\Colorado\2019-0326-Fed-Center\CWW_PPK_Files_20190327_Joe_Adams\2019\0326\GPS\ctmc\ctmc0850.19n
% inp file  : H:\Data\Colorado\2019-0326-Fed-Center\CWW_PPK_Files_20190327_Joe_Adams\2019\0326\GPS\ctmc\igu20462_18.sp3
% inp file  : H:\Data\Colorado\2019-0326-Fed-Center\CWW_PPK_Files_20190327_Joe_Adams\2019\0326\GPS\ctmc\ctmc0850.19g
% obs start : 2019/03/26 21:32:09.5 UTC (week2046 250347.5s)
% obs end   : 2019/03/26 21:53:59.0 UTC (week2046 251657.0s)
% pos mode  : kinematic
% freqs     : L1+L2
% solution  : combined
% elev mask : 15.0 deg
% dynamics  : on
% tidecorr  : off
% ionos opt : broadcast
% tropo opt : saastamoinen
% ephemeris : precise
% navi sys  : gps glonass sbas
% amb res   : fix and hold
% amb glo   : fix and hold
% val thres : 3.0
% antenna1  :                       ( 0.0000  0.0000  0.0000)
% antenna2  : TRM55971.00     NONE  ( 0.0000  0.0000  0.0000)
% ref pos   : 39.721525874 -105.192871000  1819.8362
%
% (lat/lon/height=WGS84/ellipsoidal,Q=1:fix,2:float,3:sbas,4:dgps,5:single,6:ppp,ns=# of satellites)
%  UTC                   latitude(deg) longitude(deg)  height(m)   Q  ns   sdn(m)   sde(m)   sdu(m)  sdne(m)  sdeu(m)  sdun(m) age(s)  ratio
2019/03/26 21:32:09.500   39.717796609 -105.110751262  1683.1586   1   5   0.0346   0.0153   0.1242  -0.0024   0.0258   0.0500   2.50  877.0
2019/03/26 21:32:10.000   39.717797019 -105.110751137  1683.2386   1   5   0.0382   0.0364   0.0880   0.0325   0.0185   0.0342   3.00  550.0
2019/03/26 21:32:22.000   39.717798012 -105.110750977  1683.3953   1   8   0.0059   0.0037   0.0117  -0.0023   0.0014   0.0025   0.00   36.2
2019/03/26 21:32:23.000   39.717797992 -105.110750965  1683.3949   1   8   0.0072   0.0046   0.0150  -0.0029   0.0015   0.0025   1.00   36.1
2019/03/26 21:32:24.000   39.717798041 -105.110750967  1683.3986   1   8   0.0067   0.0043   0.0137  -0.0026   0.0015   0.0025   2.00   36.0
2019/03/26 21:32:25.000   39.717798053 -105.110750991  1683.3995   1   8   0.0067   0.0043   0.0137  -0.0026   0.0015   0.0025   3.00   35.8
2019/03/26 21:32:26.000   39.717798037 -105.110750981  1683.4007   1   8   0.0072   0.0046   0.0150  -0.0029   0.0015   0.0025   4.00   35.6
2019/03/26 21:32:27.000   39.717798024 -105.110750972  1683.3983   1   8   0.0059   0.0037   0.0117  -0.0023   0.0014   0.0025   0.00   35.4
2019/03/26 21:32:28.000   39.717798040 -105.110751004  1683.3951   1   8   0.0072   0.0046   0.0150  -0.0029   0.0015   0.0025   1.00   35.3
2019/03/26 21:32:29.000   39.717798045 -105.110751011  1683.3919   1   8   0.0067   0.0043   0.0137  -0.0026   0.0015   0.0025   2.00   35.1
2019/03/26 21:32:30.000   39.717798072 -105.110751003  1683.3934   1   8   0.0067   0.0043   0.0137  -0.0026   0.0015   0.0025   3.00   34.9
2019/03/26 21:32:31.000   39.717798040 -105.110751012  1683.3942   1   8   0.0072   0.0046   0.0150  -0.0029   0.0015   0.0025   4.00   34.6
2019/03/26 21:32:32.000   39.717798052 -105.110750994  1683.3943   1   8   0.0059   0.0037   0.0117  -0.0023   0.0014   0.0025   0.00   34.5
2019/03/26 21:32:33.000   39.717798047 -105.110751002  1683.3988   1   8   0.0072   0.0046   0.0150  -0.0029   0.0015   0.0025   1.00   34.2
2019/03/26 21:32:34.000   39.717798026 -105.110751024  1683.3977   1   8   0.0067   0.0043   0.0137  -0.0026   0.0015   0.0025   2.00   34.0
2019/03/26 21:32:35.000   39.717798069 -105.110751006  1683.4054   1   8   0.0067   0.0043   0.0137  -0.0026   0.0015   0.0025   3.00   33.8
2019/03/26 21:32:36.000   39.717798079 -105.110751015  1683.4053   1   8   0.0072   0.0046   0.0150  -0.0029   0.0015   0.0025   4.00   33.4
2019/03/26 21:32:37.000   39.717798070 -105.110751025  1683.4063   1   8   0.0059   0.0037   0.0117  -0.0023   0.0014   0.0025   0.00   33.1
2019/03/26 21:32:38.000   39.717798025 -105.110751048  1683.4051   1   8   0.0072   0.0046   0.0150  -0.0029   0.0015   0.0025   1.00   32.8
2019/03/26 21:32:39.000   39.717798078 -105.110750995  1683.4038   1   8   0.0067   0.0043   0.0137  -0.0026   0.0015   0.0025   2.00   32.7
2019/03/26 21:32:40.000   39.717798048 -105.110750971  1683.3999   1   8   0.0067   0.0043   0.0137  -0.0026   0.0015   0.0026   3.00   32.3
2019/03/26 21:32:41.000   39.717798033 -105.110751010  1683.4053   1   8   0.0072   0.0046   0.0150  -0.0029   0.0015   0.0025   4.00   32.0
2019/03/26 21:32:42.000   39.717798051 -105.110750985  1683.4000   1   8   0.0059   0.0037   0.0117  -0.0023   0.0014   0.0025   0.00   31.8
2019/03/26 21:32:43.000   39.717798023 -105.110750991  1683.3947   1   8   0.0072   0.0046   0.0150  -0.0029   0.0015   0.0025   1.00   31.4
2019/03/26 21:32:44.000   39.717798021 -105.110750986  1683.4010   1   8   0.0067   0.0043   0.0137  -0.0026   0.0015   0.0026   2.00   31.1
2019/03/26 21:32:45.000   39.717798053 -105.110750995  1683.3955   1   8   0.0067   0.0043   0.0137  -0.0026   0.0015   0.0026   3.00   30.8
2019/03/26 21:32:46.000   39.717798056 -105.110750994  1683.4021   1   8   0.0072   0.0046   0.0150  -0.0029   0.0015   0.0025   4.00   30.5
2019/03/26 21:32:47.000   39.717798068 -105.110750982  1683.4047   1   8   0.0059   0.0037   0.0118  -0.0023   0.0014   0.0025   0.00   30.3
2019/03/26 21:32:48.000   39.717798035 -105.110751004  1683.4049   1   8   0.0072   0.0046   0.0150  -0.0029   0.0015   0.0025   1.00   30.0
2019/03/26 21:32:49.000   39.717798059 -105.110751017  1683.4063   1   8   0.0067   0.0043   0.0137  -0.0026   0.0015   0.0026   2.00   29.8
2019/03/26 21:32:50.000   39.717798044 -105.110750991  1683.3969   1   8   0.0067   0.0043   0.0137  -0.0026   0.0015   0.0026   3.00   29.6
2019/03/26 21:32:51.000   39.717798059 -105.110750990  1683.4001   1   8   0.0072   0.0046   0.0150  -0.0029   0.0015   0.0026   4.00   29.5
2019/03/26 21:32:52.000   39.717798064 -105.110751012  1683.4039   1   8   0.0059   0.0037   0.0118  -0.0023   0.0014   0.0025   0.00   29.4
2019/03/26 21:32:53.000   39.717798054 -105.110751011  1683.4004   1   8   0.0072   0.0046   0.0150  -0.0029   0.0015   0.0026   1.00   29.3
2019/03/26 21:32:54.000   39.717798038 -105.110751009  1683.4070   1   8   0.0067   0.0043   0.0137  -0.0026   0.0015   0.0026   2.00   29.2
2019/03/26 21:32:55.000   39.717798032 -105.110751013  1683.4014   1   8   0.0067   0.0043   0.0137  -0.0026   0.0015   0.0026   3.00   29.0
2019/03/26 21:32:56.000   39.717798030 -105.110750989  1683.4007   1   8   0.0072   0.0046   0.0150  -0.0029   0.0015   0.0026   4.00   28.9
2019/03/26 21:32:57.000   39.717798042 -105.110750969  1683.4009   1   8   0.0059   0.0037   0.0118  -0.0023   0.0014   0.0025   0.00   28.8
2019/03/26 21:32:58.000   39.717798034 -105.110750972  1683.4007   1   8   0.0072   0.0046   0.0150  -0.0029   0.0015   0.0026   1.00   28.6
2019/03/26 21:32:59.000   39.717798030 -105.110750969  1683.4006   1   8   0.0047   0.0030   0.0097  -0.0019   0.0011   0.0018  -3.00    9.6
2019/03/26 21:33:00.000   39.717798030 -105.110750970  1683.3986   1   8   0.0047   0.0030   0.0097  -0.0019   0.0011   0.0018  -2.00    9.7
2019/03/26 21:33:01.000   39.717798038 -105.110751003  1683.4061   1   9   0.0045   0.0031   0.0095  -0.0014   0.0024  -0.0029  -1.00    3.5
2019/03/26 21:33:02.000   39.717798077 -105.110751016  1683.4105   1   9   0.0035   0.0025   0.0075  -0.0010   0.0020  -0.0022   0.00    7.7
2019/03/26 21:33:03.000   39.717798062 -105.110750991  1683.4098   1   9   0.0045   0.0031   0.0095  -0.0014   0.0024  -0.0029  -4.00   10.0
2019/03/26 21:33:04.000   39.717798063 -105.110751002  1683.4055   1   9   0.0041   0.0029   0.0087  -0.0012   0.0022  -0.0026  -3.00   11.8
2019/03/26 21:33:05.000   39.717798076 -105.110750993  1683.4038   1   9   0.0041   0.0029   0.0087  -0.0012   0.0022  -0.0026  -2.00   12.3
2019/03/26 21:33:06.000   39.717798080 -105.110750975  1683.4011   1   9   0.0045   0.0031   0.0095  -0.0014   0.0024  -0.0029  -1.00   12.8
2019/03/26 21:33:07.000   39.717798084 -105.110750990  1683.4044   1   9   0.0035   0.0025   0.0075  -0.0010   0.0020  -0.0022   0.00   13.6
2019/03/26 21:33:08.000   39.717798070 -105.110750971  1683.4064   1   9   0.0045   0.0031   0.0095  -0.0014   0.0024  -0.0029  -4.00   14.0
2019/03/26 21:33:09.000   39.717798085 -105.110750997  1683.4031   1   9   0.0041   0.0029   0.0087  -0.0012   0.0022  -0.0026  -3.00   14.5
2019/03/26 21:33:10.000   39.717798058 -105.110751004  1683.3949   1   9   0.0041   0.0029   0.0087  -0.0012   0.0022  -0.0026  -2.00   14.6
2019/03/26 21:33:11.000   39.717798072 -105.110750977  1683.3982   1   9   0.0045   0.0031   0.0095  -0.0014   0.0024  -0.0029  -1.00   14.8
2019/03/26 21:33:12.000   39.717798095 -105.110750992  1683.3893   1   9   0.0035   0.0025   0.0075  -0.0010   0.0020  -0.0022   0.00   15.4
2019/03/26 21:33:13.000   39.717798104 -105.110750993  1683.3895   1   9   0.0045   0.0031   0.0095  -0.0014   0.0024  -0.0029  -4.00   15.6
2019/03/26 21:33:14.000   39.717798085 -105.110750984  1683.3947   1   9   0.0041   0.0029   0.0087  -0.0012   0.0022  -0.0026  -3.00   15.9
2019/03/26 21:33:15.000   39.717798096 -105.110750986  1683.3913   1   9   0.0041   0.0029   0.0087  -0.0012   0.0022  -0.0026  -2.00   16.2
2019/03/26 21:33:16.000   39.717798085 -105.110751003  1683.3892   1   9   0.0045   0.0031   0.0095  -0.0014   0.0024  -0.0029  -1.00   16.4
2019/03/26 21:33:17.000   39.717798057 -105.110751004  1683.3946   1   9   0.0035   0.0025   0.0075  -0.0010   0.0020  -0.0022   0.00   16.7
2019/03/26 21:33:18.000   39.717798032 -105.110751009  1683.3952   1   9   0.0045   0.0031   0.0095  -0.0014   0.0024  -0.0029  -4.00   16.8
2019/03/26 21:33:19.000   39.717798062 -105.110751009  1683.3950   1   9   0.0041   0.0029   0.0087  -0.0012   0.0022  -0.0026  -3.00   28.6
2019/03/26 21:33:20.000   39.717798082 -105.110751018  1683.3959   1   9   0.0041   0.0029   0.0087  -0.0012   0.0022  -0.0026  -2.00   35.8
2019/03/26 21:33:21.000   39.717798079 -105.110751034  1683.4019   1   9   0.0045   0.0031   0.0095  -0.0014   0.0024  -0.0029  -1.00   37.1
2019/03/26 21:33:22.000   39.717798079 -105.110751035  1683.3995   1   9   0.0035   0.0025   0.0075  -0.0010   0.0020  -0.0022   0.00   37.1
2019/03/26 21:33:23.000   39.717798058 -105.110751028  1683.4016   1   9   0.0045   0.0031   0.0095  -0.0014   0.0024  -0.0029  -4.00   37.1
2019/03/26 21:33:24.000   39.717798060 -105.110751003  1683.4061   1   9   0.0041   0.0029   0.0087  -0.0012   0.0022  -0.0026  -3.00   36.9
2019/03/26 21:33:25.000   39.717798068 -105.110751008  1683.4032   1   9   0.0041   0.0029   0.0087  -0.0012   0.0022  -0.0026  -2.00   36.7
2019/03/26 21:33:26.000   39.717798057 -105.110750993  1683.4008   1   9   0.0045   0.0031   0.0095  -0.0014   0.0024  -0.0029  -1.00   36.4
2019/03/26 21:33:27.000   39.717798071 -105.110750969  1683.4020   1   9   0.0035   0.0025   0.0075  -0.0010   0.0020  -0.0022   0.00   36.2
2019/03/26 21:33:28.000   39.717798077 -105.110750988  1683.4049   1   9   0.0045   0.0031   0.0095  -0.0014   0.0024  -0.0029  -4.00   36.1
2019/03/26 21:33:29.000   39.717798046 -105.110750994  1683.4083   1   9   0.0041   0.0029   0.0087  -0.0012   0.0022  -0.0026  -3.00   35.9
2019/03/26 21:33:30.000   39.717798045 -105.110750996  1683.4022   1   9   0.0041   0.0029   0.0087  -0.0012   0.0022  -0.0026  -2.00   35.7
2019/03/26 21:33:31.000   39.717798051 -105.110750995  1683.4075   1   9   0.0045   0.0031   0.0095  -0.0014   0.0024  -0.0029  -1.00   35.7
2019/03/26 21:33:32.000   39.717798076 -105.110751016  1683.4103   1   9   0.0035   0.0025   0.0075  -0.0010   0.0020  -0.0022   0.00   35.2
2019/03/26 21:33:33.000   39.717798052 -105.110751005  1683.4072   1   9   0.0045   0.0031   0.0095  -0.0014   0.0024  -0.0029  -4.00   35.2
2019/03/26 21:33:34.000   39.717798063 -105.110750980  1683.4071   1   9   0.0041   0.0029   0.0087  -0.0013   0.0022  -0.0026  -3.00   35.3
2019/03/26 21:33:35.000   39.717798074 -105.110750985  1683.4043   1   9   0.0041   0.0029   0.0087  -0.0013   0.0022  -0.0026  -2.00   35.3
2019/03/26 21:33:36.000   39.717798032 -105.110750999  1683.4055   1   9   0.0045   0.0031   0.0095  -0.0014   0.0024  -0.0029  -1.00   35.4
2019/03/26 21:33:37.000   39.717798048 -105.110751000  1683.4036   1   9   0.0035   0.0025   0.0075  -0.0010   0.0020  -0.0022   0.00   35.5
2019/03/26 21:33:38.000   39.717798052 -105.110751034  1683.4013   1   9   0.0045   0.0031   0.0095  -0.0014   0.0024  -0.0029  -4.00   35.7
2019/03/26 21:33:39.000   39.717798045 -105.110751006  1683.4055   1   9   0.0041   0.0029   0.0087  -0.0013   0.0022  -0.0026  -3.00   36.1
2019/03/26 21:33:40.000   39.717798049 -105.110751002  1683.4107   1   9   0.0041   0.0029   0.0087  -0.0013   0.0022  -0.0026  -2.00   36.2
2019/03/26 21:33:41.000   39.717798056 -105.110751001  1683.4051   1   9   0.0045   0.0031   0.0095  -0.0014   0.0024  -0.0029  -1.00   36.4
2019/03/26 21:33:42.000   39.717798081 -105.110750997  1683.4056   1   9   0.0035   0.0025   0.0075  -0.0010   0.0020  -0.0022   0.00   36.6
2019/03/26 21:33:43.000   39.717798095 -105.110750993  1683.4049   1   9   0.0045   0.0031   0.0095  -0.0014   0.0024  -0.0029  -4.00   36.8
2019/03/26 21:33:44.000   39.717798085 -105.110750979  1683.4062   1   9   0.0041   0.0029   0.0087  -0.0013   0.0022  -0.0026  -3.00   36.9
2019/03/26 21:33:45.000   39.717798083 -105.110751021  1683.4048   1   9   0.0041   0.0029   0.0087  -0.0013   0.0022  -0.0026  -2.00   37.0
2019/03/26 21:33:46.000   39.717798072 -105.110751028  1683.4109   1   9   0.0044   0.0031   0.0095  -0.0014   0.0024  -0.0029  -1.00   36.9
2019/03/26 21:33:47.000   39.717798088 -105.110750991  1683.4081   1   9   0.0035   0.0025   0.0075  -0.0010   0.0020  -0.0022   0.00   36.9
2019/03/26 21:33:48.000   39.717798080 -105.110750984  1683.4062   1   9   0.0044   0.0031   0.0095  -0.0014   0.0024  -0.0029  -4.00   37.1
2019/03/26 21:33:49.000   39.717798093 -105.110750996  1683.4041   1   9   0.0041   0.0029   0.0087  -0.0013   0.0022  -0.0026  -3.00   37.2
2019/03/26 21:33:50.000   39.717798073 -105.110751001  1683.4083   1   9   0.0041   0.0029   0.0087  -0.0013   0.0022  -0.0026  -2.00   37.3
2019/03/26 21:33:51.000   39.717798100 -105.110750997  1683.4027   1   9   0.0044   0.0031   0.0095  -0.0014   0.0024  -0.0029  -1.00   37.6
2019/03/26 21:33:52.000   39.717798088 -105.110751006  1683.4079   1   9   0.0035   0.0025   0.0075  -0.0010   0.0020  -0.0022   0.00   37.8
2019/03/26 21:33:53.000   39.717798069 -105.110750996  1683.4128   1   9   0.0044   0.0031   0.0095  -0.0014   0.0024  -0.0029  -4.00   38.0
2019/03/26 21:33:54.000   39.717798063 -105.110750983  1683.4099   1   9   0.0041   0.0029   0.0087  -0.0013   0.0022  -0.0026  -3.00   38.1
2019/03/26 21:33:55.000   39.717798032 -105.110750987  1683.4086   1   9   0.0041   0.0029   0.0087  -0.0013   0.0022  -0.0026  -2.00   38.4
2019/03/26 21:33:56.000   39.717798054 -105.110750991  1683.4102   1   9   0.0044   0.0031   0.0095  -0.0014   0.0024  -0.0029  -1.00   38.6
2019/03/26 21:33:57.000   39.717798054 -105.110750981  1683.4125   1   9   0.0035   0.0025   0.0075  -0.0010   0.0020  -0.0022   0.00   38.8
2019/03/26 21:33:58.000   39.717798086 -105.110750989  1683.4070   1   9   0.0044   0.0031   0.0095  -0.0014   0.0024  -0.0029  -4.00   39.1
2019/03/26 21:33:59.000   39.717798052 -105.110750977  1683.4062   1   9   0.0041   0.0029   0.0087  -0.0013   0.0022  -0.0026  -3.00   39.2
2019/03/26 21:34:00.000   39.717798062 -105.110750962  1683.4038   1   9   0.0041   0.0029   0.0087  -0.0013   0.0022  -0.0026  -2.00   39.2
2019/03/26 21:34:01.000   39.717798062 -105.110750955  1683.4039   1   9   0.0044   0.0031   0.0095  -0.0015   0.0024  -0.0029  -1.00   39.3
2019/03/26 21:34:02.000   39.717798057 -105.110750944  1683.4105   1   9   0.0035   0.0025   0.0075  -0.0010   0.0020  -0.0022   0.00   39.5
2019/03/26 21:34:03.000   39.717798063 -105.110750970  1683.4019   1   9   0.0044   0.0031   0.0095  -0.0015   0.0024  -0.0029  -4.00   39.7
2019/03/26 21:34:04.000   39.717798058 -105.110750982  1683.4041   1   9   0.0041   0.0029   0.0087  -0.0013   0.0022  -0.0026  -3.00   39.9
2019/03/26 21:34:05.000   39.717798046 -105.110750987  1683.4076   1   9   0.0041   0.0029   0.0087  -0.0013   0.0022  -0.0026  -2.00   40.0
2019/03/26 21:34:06.000   39.717798033 -105.110750997  1683.4072   1   9   0.0044   0.0031   0.0095  -0.0015   0.0024  -0.0029  -1.00   40.0
2019/03/26 21:34:07.000   39.717798059 -105.110750994  1683.4051   1   9   0.0035   0.0025   0.0075  -0.0010   0.0020  -0.0022   0.00   39.8
2019/03/26 21:34:08.000   39.717798069 -105.110750974  1683.4124   1   9   0.0045   0.0032   0.0097  -0.0014   0.0026  -0.0026  -4.00   39.9
2019/03/26 21:34:09.000   39.717798055 -105.110751008  1683.4113   1   9   0.0041   0.0029   0.0089  -0.0011   0.0025  -0.0023  -3.00   39.8
2019/03/26 21:34:10.000   39.717798042 -105.110750995  1683.4128   1   9   0.0041   0.0029   0.0090  -0.0011   0.0025  -0.0022  -2.00   39.7
2019/03/26 21:34:11.000   39.717798082 -105.110750980  1683.4150   1   9   0.0046   0.0032   0.0101  -0.0011   0.0030  -0.0021  -1.00   40.1
2019/03/26 21:34:12.000   39.717798104 -105.110750939  1683.4240   1   9   0.0036   0.0026   0.0079  -0.0007   0.0024  -0.0016   0.00   38.7
2019/03/26 21:34:13.000   39.717798087 -105.110751002  1683.4104   1   9   0.0046   0.0032   0.0101  -0.0011   0.0030  -0.0021  -4.00   39.6
2019/03/26 21:34:14.000   39.717798107 -105.110750991  1683.4108   1   9   0.0042   0.0030   0.0092  -0.0009   0.0027  -0.0019  -3.00   40.2
2019/03/26 21:34:15.000   39.717798097 -105.110750986  1683.4064   1   9   0.0042   0.0030   0.0092  -0.0009   0.0027  -0.0019  -2.00   40.8
2019/03/26 21:34:16.000   39.717798086 -105.110750995  1683.4176   1   9   0.0046   0.0032   0.0101  -0.0011   0.0030  -0.0021  -1.00   41.3
2019/03/26 21:34:17.000   39.717798083 -105.110751019  1683.4084   1   9   0.0036   0.0026   0.0079  -0.0007   0.0024  -0.0016   0.00   42.0
2019/03/26 21:34:18.000   39.717798088 -105.110751000  1683.4094   1   9   0.0046   0.0033   0.0102  -0.0010   0.0031  -0.0019  -4.00   42.5
2019/03/26 21:34:19.000   39.717798098 -105.110750992  1683.4156   1   9   0.0042   0.0030   0.0094  -0.0008   0.0028  -0.0016  -3.00   42.9
2019/03/26 21:34:20.000   39.717798037 -105.110751027  1683.4074   1   9   0.0042   0.0030   0.0094  -0.0008   0.0029  -0.0015  -2.00   43.3
2019/03/26 21:34:21.000   39.717798333 -105.110750794  1683.4349   1   9   0.0047   0.0033   0.0106  -0.0007   0.0033  -0.0011  -1.00   43.5
2019/03/26 21:34:22.000   39.717798169 -105.110750848  1683.3968   1   8   0.0037   0.0027   0.0085   0.0005   0.0029   0.0008   0.00  100.5
2019/03/26 21:34:23.000   39.717798114 -105.110750892  1683.4425   1   8   0.0048   0.0034   0.0112   0.0007   0.0038   0.0017  -4.00  101.0
2019/03/26 21:34:24.000   39.717798124 -105.110750921  1683.4377   1   8   0.0044   0.0032   0.0101   0.0006   0.0034   0.0015  -3.00  101.5
2019/03/26 21:34:25.000   39.717798295 -105.110750833  1683.3944   1   8   0.0044   0.0032   0.0101   0.0006   0.0034   0.0015  -2.00   98.6
2019/03/26 21:34:26.000   39.717798089 -105.110750947  1683.4207   1   8   0.0051   0.0035   0.0114   0.0003   0.0039   0.0021  -1.00   97.8
2019/03/26 21:34:27.000   39.717798158 -105.110750961  1683.4275   1   8   0.0041   0.0029   0.0089  -0.0005   0.0030   0.0016   0.00   97.2
2019/03/26 21:34:28.000   39.717798225 -105.110750889  1683.4347   1   8   0.0054   0.0036   0.0116  -0.0008   0.0040   0.0026  -4.00  106.3
2019/03/26 21:34:29.000   39.717798370 -105.110750775  1683.4711   1   8   0.0050   0.0035   0.0107  -0.0010   0.0039   0.0022  -3.00  104.0
2019/03/26 21:34:30.000   39.717798135 -105.110750928  1683.4243   1   8   0.0051   0.0039   0.0114  -0.0015   0.0046   0.0017  -2.00   80.2
2019/03/26 21:34:31.000   39.717798066 -105.110750905  1683.4251   1   8   0.0062   0.0043   0.0126  -0.0021   0.0050   0.0028  -1.00   71.9
2019/03/26 21:34:32.000   39.717798101 -105.110750942  1683.4202   1   8   0.0043   0.0034   0.0096  -0.0010   0.0039   0.0008   0.00   71.7
2019/03/26 21:34:33.000   39.717798149 -105.110751007  1683.4000   1   8   0.0075   0.0041   0.0126   0.0021   0.0048   0.0052  -4.00   36.8
2019/03/26 21:34:34.000   39.717798086 -105.110751000  1683.4155   1   8   0.0057   0.0037   0.0108   0.0020   0.0041   0.0034  -3.00   36.7
2019/03/26 21:34:35.000   39.717797976 -105.110751025  1683.3865   1   8   0.0055   0.0036   0.0107   0.0020   0.0040   0.0032  -2.00   36.5
2019/03/26 21:34:36.000   39.717798113 -105.110751000  1683.4118   1   8   0.0055   0.0038   0.0115   0.0019   0.0043   0.0028  -1.00    4.1
2019/03/26 21:34:37.000   39.717798121 -105.110751020  1683.4096   1   8   0.0047   0.0032   0.0089   0.0021   0.0035   0.0025   0.00    5.4
2019/03/26 21:34:38.000   39.717798114 -105.110750982  1683.4160   1   8   0.0054   0.0037   0.0114   0.0018   0.0041   0.0025  -4.00    6.2
2019/03/26 21:34:39.000   39.717798138 -105.110750975  1683.4132   1   8   0.0048   0.0033   0.0102   0.0014   0.0035   0.0020  -3.00    7.2
2019/03/26 21:34:40.000   39.717798141 -105.110750979  1683.4142   1   8   0.0046   0.0032   0.0101   0.0012   0.0035   0.0017  -2.00   10.1
2019/03/26 21:34:41.000   39.717798152 -105.110750968  1683.4218   1   8   0.0050   0.0035   0.0112   0.0011   0.0038   0.0019  -1.00   11.2
2019/03/26 21:34:42.000   39.717798121 -105.110750989  1683.4232   1   8   0.0038   0.0028   0.0086   0.0007   0.0029   0.0009   0.00    8.3
2019/03/26 21:34:43.000   39.717798131 -105.110750991  1683.4163   1   8   0.0049   0.0035   0.0112   0.0008   0.0038   0.0018  -4.00    9.6
2019/03/26 21:34:44.000   39.717798299 -105.110750822  1683.4299   1   8   0.0044   0.0032   0.0101   0.0006   0.0034   0.0014  -3.00   12.3
2019/03/26 21:34:45.000   39.717798083 -105.110750919  1683.4397   1   8   0.0044   0.0032   0.0101   0.0006   0.0034   0.0014  -2.00   13.8
2019/03/26 21:34:46.000   39.717798094 -105.110750960  1683.4274   1   8   0.0048   0.0034   0.0112   0.0007   0.0038   0.0017  -1.00   15.1
2019/03/26 21:34:47.000   39.717798076 -105.110750944  1683.4245   1   8   0.0037   0.0027   0.0085   0.0005   0.0029   0.0008   0.00   17.1
2019/03/26 21:34:48.000   39.717798125 -105.110750943  1683.4249   1   8   0.0048   0.0034   0.0112   0.0007   0.0038   0.0017  -4.00   18.3
2019/03/26 21:34:49.000   39.717798089 -105.110750978  1683.4263   1   8   0.0044   0.0032   0.0101   0.0006   0.0034   0.0014  -3.00   19.7
2019/03/26 21:34:50.000   39.717798076 -105.110750954  1683.4198   1   8   0.0044   0.0032   0.0101   0.0006   0.0034   0.0014  -2.00   21.3
2019/03/26 21:34:51.000   39.717798073 -105.110750955  1683.4167   1   8   0.0048   0.0034   0.0112   0.0007   0.0038   0.0017  -1.00   22.6
2019/03/26 21:34:52.000   39.717798077 -105.110750940  1683.4163   1   8   0.0037   0.0027   0.0086   0.0005   0.0029   0.0008   0.00   24.6
2019/03/26 21:34:53.000   39.717798083 -105.110750955  1683.4148   1   8   0.0048   0.0034   0.0112   0.0007   0.0038   0.0017  -4.00   26.0
2019/03/26 21:34:54.000   39.717798057 -105.110750977  1683.4179   1   8   0.0044   0.0032   0.0101   0.0006   0.0034   0.0014  -3.00   27.3
2019/03/26 21:34:55.000   39.717798092 -105.110750961  1683.4199   1   8   0.0044   0.0032   0.0101   0.0006   0.0034   0.0014  -2.00   28.7
2019/03/26 21:34:56.000   39.717798081 -105.110750994  1683.4176   1   8   0.0048   0.0034   0.0112   0.0007   0.0038   0.0017  -1.00   29.9
2019/03/26 21:34:57.000   39.717798076 -105.110750974  1683.4132   1   8   0.0037   0.0027   0.0086   0.0005   0.0029   0.0008   0.00   31.8
2019/03/26 21:34:58.000   39.717798085 -105.110750944  1683.4194   1   8   0.0048   0.0034   0.0112   0.0007   0.0038   0.0017  -4.00   32.8
2019/03/26 21:34:59.000   39.717798095 -105.110750964  1683.4137   1   8   0.0044   0.0032   0.0101   0.0006   0.0034   0.0014  -3.00   34.2
2019/03/26 21:35:00.000   39.717798109 -105.110750943  1683.4177   1   8   0.0044   0.0032   0.0101   0.0006   0.0034   0.0014  -2.00   35.5
2019/03/26 21:35:01.000   39.717798111 -105.110750943  1683.4156   1   8   0.0048   0.0034   0.0112   0.0007   0.0038   0.0018  -1.00   36.6
2019/03/26 21:35:02.000   39.717798105 -105.110750945  1683.4058   1   8   0.0037   0.0027   0.0086   0.0005   0.0029   0.0008   0.00   38.3
2019/03/26 21:35:03.000   39.717798112 -105.110750936  1683.4204   1   8   0.0048   0.0034   0.0112   0.0007   0.0038   0.0018  -4.00   39.2
2019/03/26 21:35:04.000   39.717798101 -105.110750952  1683.4159   1   8   0.0044   0.0032   0.0101   0.0006   0.0034   0.0014  -3.00   40.3
2019/03/26 21:35:05.000   39.717798104 -105.110750947  1683.4136   1   8   0.0044   0.0032   0.0101   0.0006   0.0034   0.0014  -2.00   41.4
2019/03/26 21:35:06.000   39.717798084 -105.110750954  1683.4117   1   8   0.0048   0.0034   0.0112   0.0007   0.0038   0.0018  -1.00   42.2
2019/03/26 21:35:07.000   39.717798093 -105.110750972  1683.4056   1   8   0.0037   0.0027   0.0086   0.0005   0.0029   0.0009   0.00   43.5
2019/03/26 21:35:08.000   39.717798099 -105.110750969  1683.4105   1   8   0.0048   0.0034   0.0112   0.0007   0.0038   0.0018  -4.00   44.5
2019/03/26 21:35:09.000   39.717798024 -105.110750953  1683.4346   1   8   0.0044   0.0032   0.0101   0.0006   0.0034   0.0014  -3.00   45.6
2019/03/26 21:35:10.000   39.717794794 -105.110754176  1684.9986   1   8   0.0044   0.0032   0.0101   0.0006   0.0034   0.0014  -2.00   47.1
2019/03/26 21:35:11.000   39.717792892 -105.110757590  1686.3636   1   8   0.0048   0.0034   0.0112   0.0007   0.0038   0.0018  -1.00   48.4
2019/03/26 21:35:12.000   39.717794038 -105.110757196  1687.4667   1   8   0.0037   0.0027   0.0086   0.0005   0.0029   0.0009   0.00   50.0
2019/03/26 21:35:13.000   39.717795677 -105.110755715  1688.3722   1   9   0.0047   0.0033   0.0106  -0.0008   0.0033  -0.0011  -4.00   51.1
2019/03/26 21:35:14.000   39.717797646 -105.110753801  1689.2341   1   9   0.0042   0.0030   0.0095  -0.0008   0.0029  -0.0015  -3.00   52.4
2019/03/26 21:35:15.000   39.717799442 -105.110751982  1689.9403   1   9   0.0042   0.0030   0.0094  -0.0009   0.0029  -0.0016  -2.00   53.7
2019/03/26 21:35:16.000   39.717800577 -105.110751052  1690.0926   1   9   0.0046   0.0032   0.0101  -0.0012   0.0030  -0.0020  -1.00   55.1
2019/03/26 21:35:17.000   39.717801087 -105.110749414  1690.2080   1   9   0.0036   0.0026   0.0078  -0.0009   0.0022  -0.0018   0.00   56.3
2019/03/26 21:35:18.000   39.717804459 -105.110747482  1690.2853   1   9   0.0045   0.0032   0.0097  -0.0014   0.0026  -0.0026  -4.00   57.6
2019/03/26 21:35:19.000   39.717817036 -105.110744906  1690.3382   1   9   0.0041   0.0029   0.0089  -0.0012   0.0024  -0.0024  -3.00   59.4
2019/03/26 21:35:20.000   39.717828247 -105.110741273  1690.4911   1   9   0.0041   0.0029   0.0087  -0.0013   0.0023  -0.0026  -2.00    3.5
2019/03/26 21:35:21.000   39.717822705 -105.110741640  1690.5797   1   9   0.0044   0.0031   0.0095  -0.0015   0.0024  -0.0028  -1.00    4.0
2019/03/26 21:35:22.000   39.717805078 -105.110745524  1690.3838   1   9   0.0035   0.0025   0.0075  -0.0011   0.0020  -0.0022   0.00    4.7
2019/03/26 21:35:23.000   39.717795800 -105.110748491  1690.0497   1   9   0.0044   0.0031   0.0095  -0.0015   0.0024  -0.0028  -4.00    5.1
2019/03/26 21:35:24.000   39.717799491 -105.110750071  1689.8289   1   9   0.0041   0.0029   0.0087  -0.0013   0.0023  -0.0025  -3.00    5.5
2019/03/26 21:35:25.000   39.717811128 -105.110750820  1689.7943   1   9   0.0041   0.0029   0.0087  -0.0013   0.0023  -0.0025  -2.00    6.1
2019/03/26 21:35:26.000   39.717818283 -105.110766297  1689.9315   1   9   0.0044   0.0031   0.0095  -0.0015   0.0024  -0.0028  -1.00    6.5
2019/03/26 21:35:27.000   39.717821249 -105.110769217  1690.1322   1   9   0.0035   0.0025   0.0075  -0.0011   0.0020  -0.0022   0.00    7.0
2019/03/26 21:35:28.000   39.717821921 -105.110757739  1690.1536   1   9   0.0044   0.0031   0.0095  -0.0015   0.0024  -0.0028  -4.00    7.4
2019/03/26 21:35:29.000   39.717820320 -105.110736751  1690.0287   1   9   0.0041   0.0029   0.0087  -0.0013   0.0023  -0.0025  -3.00    7.8
2019/03/26 21:35:30.000   39.717818872 -105.110730509  1690.0258   1   9   0.0041   0.0029   0.0087  -0.0013   0.0023  -0.0025  -2.00    8.1
2019/03/26 21:35:31.000   39.717819212 -105.110734307  1690.3987   1   9   0.0044   0.0031   0.0095  -0.0015   0.0024  -0.0028  -1.00    8.6
2019/03/26 21:35:32.000   39.717819842 -105.110735751  1691.1104   1   9   0.0035   0.0025   0.0075  -0.0011   0.0020  -0.0021   0.00    9.1
2019/03/26 21:35:33.000   39.717819633 -105.110735602  1692.1213   1   9   0.0044   0.0031   0.0095  -0.0015   0.0024  -0.0028  -4.00    9.4
2019/03/26 21:35:34.000   39.717819306 -105.110734661  1693.6312   1   9   0.0041   0.0029   0.0087  -0.0013   0.0023  -0.0025  -3.00    9.7
2019/03/26 21:35:35.000   39.717819103 -105.110733934  1695.8189   1   9   0.0041   0.0029   0.0087  -0.0013   0.0023  -0.0025  -2.00   10.1
2019/03/26 21:35:36.000   39.717818703 -105.110734846  1698.1967   1   9   0.0044   0.0031   0.0095  -0.0015   0.0024  -0.0028  -1.00   10.5
2019/03/26 21:35:37.000   39.717817493 -105.110735429  1700.4381   1   9   0.0035   0.0025   0.0075  -0.0011   0.0020  -0.0021   0.00   10.9
2019/03/26 21:35:38.000   39.717815776 -105.110736733  1702.6134   1   9   0.0044   0.0031   0.0095  -0.0015   0.0024  -0.0028  -4.00   11.3
2019/03/26 21:35:39.000   39.717814001 -105.110737041  1704.8861   1   9   0.0041   0.0029   0.0087  -0.0013   0.0023  -0.0025  -3.00   11.8
2019/03/26 21:35:40.000   39.717812766 -105.110737983  1707.1410   1   9   0.0041   0.0029   0.0087  -0.0013   0.0023  -0.0025  -2.00   12.0
2019/03/26 21:35:41.000   39.717812169 -105.110738833  1709.3879   1   9   0.0044   0.0031   0.0095  -0.0015   0.0024  -0.0028  -1.00   12.4
2019/03/26 21:35:42.000   39.717813385 -105.110739976  1711.5827   1   9   0.0035   0.0025   0.0075  -0.0011   0.0020  -0.0021   0.00   12.9
2019/03/26 21:35:43.000   39.717814525 -105.110740398  1713.8033   1   9   0.0044   0.0031   0.0095  -0.0015   0.0024  -0.0028  -4.00   13.2
2019/03/26 21:35:44.000   39.717814806 -105.110739658  1716.0590   1   9   0.0041   0.0029   0.0087  -0.0013   0.0023  -0.0025  -3.00   13.5
2019/03/26 21:35:45.000   39.717814214 -105.110738489  1718.0571   1   9   0.0041   0.0029   0.0087  -0.0013   0.0023  -0.0025  -2.00   13.7
2019/03/26 21:35:46.000   39.717812390 -105.110736900  1719.0432   1   9   0.0044   0.0031   0.0095  -0.0015   0.0024  -0.0028  -1.00   14.1
2019/03/26 21:35:47.000   39.717810590 -105.110736154  1719.3681   1   9   0.0035   0.0025   0.0075  -0.0011   0.0020  -0.0021   0.00   14.1
2019/03/26 21:35:48.000   39.717810525 -105.110736247  1720.8718   1   9   0.0044   0.0031   0.0095  -0.0015   0.0024  -0.0028  -4.00   14.2
2019/03/26 21:35:49.000   39.717811783 -105.110736998  1723.0416   1   9   0.0041   0.0029   0.0087  -0.0014   0.0023  -0.0025  -3.00   14.5
2019/03/26 21:35:50.000   39.717812027 -105.110738198  1725.1248   1   9   0.0041   0.0029   0.0087  -0.0014   0.0023  -0.0025  -2.00   14.9
2019/03/26 21:35:51.000   39.717811589 -105.110738633  1726.4762   1   9   0.0044   0.0031   0.0095  -0.0015   0.0024  -0.0028  -1.00   15.1
2019/03/26 21:35:52.000   39.717810703 -105.110738387  1727.0677   1   9   0.0035   0.0025   0.0075  -0.0011   0.0020  -0.0021   0.00   15.3
2019/03/26 21:35:53.000   39.717810358 -105.110738127  1726.9304   1   9   0.0044   0.0031   0.0095  -0.0015   0.0024  -0.0028  -4.00   15.6
2019/03/26 21:35:54.000   39.717810460 -105.110737481  1726.9993   1   9   0.0041   0.0029   0.0087  -0.0013   0.0023  -0.0025  -3.00   15.8
2019/03/26 21:35:55.000   39.717809982 -105.110738524  1727.0330   1   9   0.0041   0.0029   0.0087  -0.0013   0.0023  -0.0025  -2.00   16.1
2019/03/26 21:35:56.000   39.717792687 -105.110757860  1727.0184   1   9   0.0044   0.0032   0.0096  -0.0015   0.0025  -0.0027  -1.00   16.3
2019/03/26 21:35:57.000   39.717756122 -105.110802251  1726.9291   1   9   0.0035   0.0025   0.0076  -0.0010   0.0021  -0.0021   0.00   16.5
2019/03/26 21:35:58.000   39.717725214 -105.110850738  1726.7557   1   9   0.0044   0.0032   0.0096  -0.0015   0.0026  -0.0027  -4.00   16.8
2019/03/26 21:35:59.000   39.717730509 -105.110874631  1726.5117   1   9   0.0041   0.0029   0.0089  -0.0012   0.0025  -0.0023  -3.00   17.2
2019/03/26 21:36:00.000   39.717768704 -105.110889242  1726.3081   1   9   0.0042   0.0030   0.0092  -0.0010   0.0028  -0.0018  -2.00   20.1
2019/03/26 21:36:01.000   39.717814744 -105.110899567  1726.3798   1   9   0.0046   0.0033   0.0101  -0.0012   0.0030  -0.0020  -1.00   20.5
2019/03/26 21:36:02.000   39.717857942 -105.110904083  1726.6439   1   9   0.0036   0.0026   0.0079  -0.0008   0.0024  -0.0016   0.00   20.6
2019/03/26 21:36:03.000   39.717897300 -105.110908323  1727.0140   1   9   0.0045   0.0032   0.0098  -0.0014   0.0027  -0.0025  -4.00   20.9
2019/03/26 21:36:04.000   39.717935539 -105.110914626  1727.3142   1   9   0.0041   0.0029   0.0088  -0.0013   0.0024  -0.0024  -3.00   21.3
2019/03/26 21:36:05.000   39.717974383 -105.110922462  1727.5306   1   9   0.0041   0.0029   0.0088  -0.0013   0.0024  -0.0024  -2.00   21.3
2019/03/26 21:36:06.000   39.718014733 -105.110931144  1727.6756   1   9   0.0044   0.0032   0.0096  -0.0015   0.0025  -0.0027  -1.00   21.5
2019/03/26 21:36:07.000   39.718057268 -105.110939879  1727.7441   1   9   0.0035   0.0025   0.0075  -0.0011   0.0020  -0.0021   0.00    4.7
2019/03/26 21:36:08.000   39.718100476 -105.110947521  1727.8249   1   9   0.0044   0.0031   0.0095  -0.0015   0.0025  -0.0028  -4.00    5.4
2019/03/26 21:36:09.000   39.718144005 -105.110954445  1727.7308   1   9   0.0040   0.0029   0.0087  -0.0014   0.0023  -0.0025  -3.00    6.1
2019/03/26 21:36:10.000   39.718188116 -105.110960589  1727.5687   1   9   0.0040   0.0029   0.0087  -0.0014   0.0023  -0.0025  -2.00    6.9
2019/03/26 21:36:11.000   39.718232642 -105.110966431  1727.4812   1   9   0.0044   0.0031   0.0095  -0.0015   0.0025  -0.0028  -1.00    7.6
2019/03/26 21:36:12.000   39.718277453 -105.110972261  1727.4685   1   9   0.0035   0.0025   0.0075  -0.0011   0.0020  -0.0021   0.00    8.6
2019/03/26 21:36:13.000   39.718322424 -105.110978277  1727.4731   1   9   0.0044   0.0031   0.0095  -0.0016   0.0025  -0.0028  -4.00    9.3
2019/03/26 21:36:14.000   39.718368051 -105.110984875  1727.4907   1   9   0.0040   0.0029   0.0087  -0.0014   0.0023  -0.0025  -3.00   10.0
2019/03/26 21:36:15.000   39.718413912 -105.110991165  1727.4780   1   9   0.0040   0.0029   0.0087  -0.0014   0.0023  -0.0025  -2.00   10.6
2019/03/26 21:36:16.000   39.718459846 -105.110997098  1727.4625   1   9   0.0044   0.0031   0.0095  -0.0016   0.0025  -0.0028  -1.00   11.2
2019/03/26 21:36:17.000   39.718505760 -105.111003026  1727.4766   1   9   0.0035   0.0025   0.0075  -0.0011   0.0020  -0.0021   0.00   11.9
2019/03/26 21:36:18.000   39.718550787 -105.111009016  1727.5028   1   9   0.0044   0.0031   0.0095  -0.0016   0.0025  -0.0028  -4.00   12.5
2019/03/26 21:36:19.000   39.718595607 -105.111015711  1727.5772   1   9   0.0040   0.0029   0.0087  -0.0014   0.0023  -0.0025  -3.00   13.2
2019/03/26 21:36:20.000   39.718640889 -105.111022762  1727.6524   1   9   0.0040   0.0029   0.0087  -0.0014   0.0023  -0.0025  -2.00   13.9
2019/03/26 21:36:21.000   39.718687114 -105.111030576  1727.6948   1   9   0.0044   0.0031   0.0095  -0.0016   0.0025  -0.0028  -1.00   14.6
2019/03/26 21:36:22.000   39.718733557 -105.111037307  1727.6965   1   9   0.0035   0.0025   0.0075  -0.0011   0.0020  -0.0021   0.00   15.4
2019/03/26 21:36:23.000   39.718779611 -105.111043048  1727.7014   1   9   0.0044   0.0031   0.0095  -0.0016   0.0025  -0.0028  -4.00   15.9
2019/03/26 21:36:24.000   39.718825053 -105.111047823  1727.7608   1   9   0.0040   0.0029   0.0087  -0.0014   0.0023  -0.0025  -3.00   16.4
2019/03/26 21:36:25.000   39.718869771 -105.111053486  1727.8133   1   9   0.0040   0.0029   0.0087  -0.0014   0.0023  -0.0025  -2.00   16.9
2019/03/26 21:36:26.000   39.718914117 -105.111059494  1727.8704   1   9   0.0044   0.0031   0.0095  -0.0016   0.0025  -0.0028  -1.00   17.3
2019/03/26 21:36:27.000   39.718958534 -105.111064755  1727.7910   1   9   0.0035   0.0025   0.0075  -0.0011   0.0020  -0.0021   0.00   18.1
2019/03/26 21:36:28.000   39.719003743 -105.111070217  1727.7937   1   9   0.0044   0.0031   0.0095  -0.0016   0.0025  -0.0028  -4.00   18.6
2019/03/26 21:36:29.000   39.719049548 -105.111076983  1727.8461   1   9   0.0040   0.0029   0.0087  -0.0014   0.0023  -0.0025  -3.00   19.1
2019/03/26 21:36:30.000   39.719094759 -105.111083709  1727.9712   1   9   0.0040   0.0029   0.0087  -0.0014   0.0023  -0.0025  -2.00   20.1
2019/03/26 21:36:31.000   39.719140023 -105.111089307  1727.9400   1   9   0.0044   0.0031   0.0095  -0.0016   0.0025  -0.0028  -1.00   20.6
2019/03/26 21:36:32.000   39.719186162 -105.111093188  1727.9250   1   9   0.0035   0.0025   0.0075  -0.0011   0.0020  -0.0021   0.00   21.3
2019/03/26 21:36:33.000   39.719233527 -105.111096231  1727.9372   1   9   0.0044   0.0031   0.0095  -0.0016   0.0025  -0.0028  -4.00   21.9
2019/03/26 21:36:34.000   39.719279695 -105.111100637  1727.9685   1   9   0.0040   0.0029   0.0087  -0.0014   0.0023  -0.0025  -3.00   22.4
2019/03/26 21:36:35.000   39.719324838 -105.111105731  1728.0009   1   9   0.0040   0.0029   0.0087  -0.0014   0.0023  -0.0025  -2.00   23.0
2019/03/26 21:36:36.000   39.719369732 -105.111112364  1728.0191   1   9   0.0044   0.0031   0.0095  -0.0016   0.0025  -0.0028  -1.00   23.4
2019/03/26 21:36:37.000   39.719414228 -105.111118968  1728.0064   1   9   0.0035   0.0025   0.0075  -0.0011   0.0020  -0.0021   0.00   24.6
2019/03/26 21:36:38.000   39.719459335 -105.111125033  1727.9467   1   9   0.0044   0.0031   0.0095  -0.0016   0.0025  -0.0028  -4.00   25.0
2019/03/26 21:36:39.000   39.719504566 -105.111130268  1727.9181   1   9   0.0040   0.0029   0.0087  -0.0014   0.0023  -0.0025  -3.00   25.6
2019/03/26 21:36:40.000   39.719549446 -105.111134755  1727.9002   1   9   0.0040   0.0029   0.0087  -0.0014   0.0023  -0.0025  -2.00   26.1
2019/03/26 21:36:41.000   39.719593956 -105.111139270  1727.8471   1   9   0.0044   0.0031   0.0095  -0.0016   0.0025  -0.0028  -1.00   26.6
2019/03/26 21:36:42.000   39.719638249 -105.111145688  1727.7993   1   9   0.0035   0.0025   0.0075  -0.0011   0.0020  -0.0021   0.00   27.5
2019/03/26 21:36:43.000   39.719682535 -105.111154041  1727.7290   1   9   0.0044   0.0031   0.0095  -0.0016   0.0025  -0.0028  -4.00   27.8
2019/03/26 21:36:44.000   39.719727370 -105.111160914  1727.6523   1   9   0.0040   0.0029   0.0087  -0.0014   0.0023  -0.0025  -3.00   28.5
2019/03/26 21:36:45.000   39.719767782 -105.111168694  1727.6897   1   9   0.0040   0.0029   0.0087  -0.0014   0.0023  -0.0025  -2.00   29.0
2019/03/26 21:36:46.000   39.719781689 -105.111192674  1727.5623   1   9   0.0044   0.0031   0.0095  -0.0016   0.0025  -0.0028  -1.00   29.6
2019/03/26 21:36:47.000   39.719787863 -105.111238808  1727.1834   1   9   0.0035   0.0025   0.0075  -0.0011   0.0020  -0.0021   0.00   30.4
2019/03/26 21:36:48.000   39.719791983 -105.111289257  1726.7855   1   9   0.0044   0.0031   0.0095  -0.0016   0.0025  -0.0028  -4.00   31.0
2019/03/26 21:36:49.000   39.719793588 -105.111345377  1726.5467   1   9   0.0040   0.0029   0.0087  -0.0014   0.0023  -0.0025  -3.00   31.5
2019/03/26 21:36:50.000   39.719793260 -105.111403115  1726.4068   1   9   0.0040   0.0029   0.0087  -0.0014   0.0023  -0.0025  -2.00   32.1
2019/03/26 21:36:51.000   39.719791024 -105.111456978  1726.3337   1   9   0.0044   0.0031   0.0095  -0.0016   0.0025  -0.0028  -1.00   32.5
2019/03/26 21:36:52.000   39.719789655 -105.111486713  1727.0945   1   9   0.0035   0.0025   0.0075  -0.0011   0.0020  -0.0021   0.00   32.9
2019/03/26 21:36:53.000   39.719792211 -105.111503196  1729.5887   1   9   0.0044   0.0031   0.0095  -0.0016   0.0025  -0.0028  -4.00   33.4
2019/03/26 21:36:54.000   39.719800776 -105.111517008  1732.7628   1   9   0.0040   0.0029   0.0087  -0.0014   0.0023  -0.0025  -3.00   34.1
2019/03/26 21:36:55.000   39.719808001 -105.111525949  1735.7581   1   9   0.0040   0.0029   0.0087  -0.0014   0.0023  -0.0025  -2.00   34.6
2019/03/26 21:36:56.000   39.719801957 -105.111524603  1737.0038   1   9   0.0044   0.0031   0.0095  -0.0016   0.0025  -0.0028  -1.00   34.9
2019/03/26 21:36:57.000   39.719762465 -105.111505025  1737.2330   1   9   0.0035   0.0025   0.0075  -0.0011   0.0020  -0.0021   0.00   34.9
2019/03/26 21:36:58.000   39.719700500 -105.111475139  1737.2778   1   9   0.0044   0.0031   0.0095  -0.0016   0.0025  -0.0028  -4.00   35.2
2019/03/26 21:36:59.000   39.719628136 -105.111444148  1737.2324   1   9   0.0040   0.0029   0.0087  -0.0014   0.0023  -0.0025  -3.00   35.3
2019/03/26 21:37:00.000   39.719550370 -105.111412859  1737.3421   1   9   0.0040   0.0029   0.0087  -0.0014   0.0023  -0.0025  -2.00   35.6
2019/03/26 21:37:01.000   39.719470425 -105.111381119  1737.4437   1   9   0.0044   0.0031   0.0095  -0.0016   0.0025  -0.0028  -1.00   35.8
2019/03/26 21:37:02.000   39.719388986 -105.111350396  1737.4036   1   9   0.0035   0.0025   0.0075  -0.0011   0.0020  -0.0021   0.00   35.9
2019/03/26 21:37:03.000   39.719307756 -105.111318825  1737.2667   1   9   0.0044   0.0031   0.0095  -0.0016   0.0025  -0.0028  -4.00   36.1
2019/03/26 21:37:04.000   39.719226699 -105.111286105  1737.1121   1   9   0.0040   0.0029   0.0087  -0.0014   0.0023  -0.0025  -3.00   36.4
2019/03/26 21:37:05.000   39.719144780 -105.111252891  1736.9977   1   9   0.0040   0.0029   0.0087  -0.0014   0.0023  -0.0025  -2.00   36.6
2019/03/26 21:37:06.000   39.719062095 -105.111219230  1736.9049   1   9   0.0044   0.0031   0.0095  -0.0016   0.0025  -0.0028  -1.00   36.9
2019/03/26 21:37:07.000   39.718979349 -105.111184894  1736.8011   1   9   0.0035   0.0025   0.0075  -0.0011   0.0020  -0.0021   0.00   37.3
2019/03/26 21:37:08.000   39.718896742 -105.111150790  1736.7593   1   9   0.0044   0.0031   0.0095  -0.0016   0.0025  -0.0028  -4.00   37.7
2019/03/26 21:37:09.000   39.718814563 -105.111117230  1736.7233   1   9   0.0040   0.0029   0.0087  -0.0014   0.0023  -0.0025  -3.00   38.2
2019/03/26 21:37:10.000   39.718732442 -105.111085114  1736.6445   1   9   0.0040   0.0029   0.0087  -0.0014   0.0023  -0.0025  -2.00   38.6
2019/03/26 21:37:11.000   39.718650489 -105.111053535  1736.5686   1   9   0.0044   0.0031   0.0095  -0.0016   0.0025  -0.0028  -1.00   38.9
2019/03/26 21:37:12.000   39.718568144 -105.111021229  1736.3858   1   9   0.0035   0.0025   0.0075  -0.0011   0.0020  -0.0021   0.00   39.2
2019/03/26 21:37:13.000   39.718485604 -105.110987454  1736.2606   1   9   0.0044   0.0031   0.0095  -0.0016   0.0025  -0.0028  -4.00   39.2
2019/03/26 21:37:14.000   39.718403605 -105.110953673  1736.2409   1   9   0.0040   0.0029   0.0087  -0.0014   0.0023  -0.0025  -3.00   39.6
2019/03/26 21:37:15.000   39.718322054 -105.110921364  1736.3690   1   9   0.0040   0.0029   0.0087  -0.0014   0.0023  -0.0025  -2.00   39.7
2019/03/26 21:37:16.000   39.718241794 -105.110889465  1736.5396   1   9   0.0044   0.0031   0.0095  -0.0016   0.0025  -0.0028  -1.00   39.9
2019/03/26 21:37:17.000   39.718159357 -105.110856506  1736.5912   1   9   0.0035   0.0025   0.0075  -0.0011   0.0020  -0.0021   0.00   40.2
2019/03/26 21:37:18.000   39.718076270 -105.110822801  1736.5851   1   9   0.0044   0.0031   0.0095  -0.0016   0.0025  -0.0028  -4.00   40.1
2019/03/26 21:37:19.000   39.717992948 -105.110789506  1736.5719   1   9   0.0040   0.0029   0.0087  -0.0014   0.0023  -0.0025  -3.00   40.2
2019/03/26 21:37:20.000   39.717937535 -105.110774897  1736.4973   1   9   0.0040   0.0029   0.0087  -0.0014   0.0023  -0.0025  -2.00   40.4
2019/03/26 21:37:21.000   39.717922079 -105.110769791  1736.4884   1   9   0.0044   0.0031   0.0095  -0.0016   0.0025  -0.0028  -1.00   40.9
2019/03/26 21:37:22.000   39.717922553 -105.110767120  1736.5380   1   9   0.0035   0.0025   0.0075  -0.0011   0.0020  -0.0021   0.00   41.4
2019/03/26 21:37:23.000   39.717919858 -105.110764815  1736.5136   1   9   0.0044   0.0031   0.0095  -0.0016   0.0025  -0.0028  -4.00   41.8
2019/03/26 21:37:24.000   39.717916815 -105.110762995  1736.3100   1   9   0.0040   0.0029   0.0087  -0.0014   0.0023  -0.0025  -3.00   42.1
2019/03/26 21:37:25.000   39.717914812 -105.110760366  1736.1153   1   9   0.0040   0.0029   0.0087  -0.0014   0.0023  -0.0025  -2.00   42.8
2019/03/26 21:37:26.000   39.717913437 -105.110758345  1735.9919   1   9   0.0044   0.0031   0.0095  -0.0016   0.0025  -0.0028  -1.00   42.9
2019/03/26 21:37:27.000   39.717912709 -105.110757310  1735.9245   1   9   0.0035   0.0025   0.0075  -0.0011   0.0020  -0.0021   0.00   43.3
2019/03/26 21:37:28.000   39.717910781 -105.110756926  1735.9235   1   9   0.0044   0.0031   0.0095  -0.0016   0.0025  -0.0028  -4.00   43.5
2019/03/26 21:37:29.000   39.717910651 -105.110756795  1735.9211   1   9   0.0040   0.0029   0.0087  -0.0014   0.0023  -0.0025  -3.00   43.8
2019/03/26 21:37:30.000   39.717911232 -105.110757640  1735.9365   1   9   0.0040   0.0029   0.0087  -0.0014   0.0023  -0.0025  -2.00   44.0
2019/03/26 21:37:31.000   39.717911912 -105.110759599  1736.0073   1   9   0.0044   0.0031   0.0095  -0.0016   0.0025  -0.0028  -1.00   44.2
2019/03/26 21:37:32.000   39.717912446 -105.110761248  1736.0807   1   9   0.0035   0.0025   0.0075  -0.0011   0.0020  -0.0021   0.00   44.3
2019/03/26 21:37:33.000   39.717912692 -105.110761740  1736.0904   1   9   0.0044   0.0031   0.0095  -0.0016   0.0025  -0.0028  -4.00   44.5
2019/03/26 21:37:34.000   39.717912682 -105.110762434  1736.1475   1   9   0.0040   0.0029   0.0087  -0.0014   0.0023  -0.0025  -3.00   44.6
2019/03/26 21:37:35.000   39.717912657 -105.110762685  1736.1893   1   9   0.0040   0.0029   0.0088  -0.0014   0.0024  -0.0024  -2.00   44.9
2019/03/26 21:37:36.000   39.717913613 -105.110762209  1736.2132   1   9   0.0044   0.0032   0.0096  -0.0016   0.0026  -0.0027  -1.00   45.2
2019/03/26 21:37:37.000   39.717928941 -105.110763389  1736.0955   1   9   0.0035   0.0026   0.0076  -0.0011   0.0021  -0.0020   0.00   45.6
2019/03/26 21:37:38.000   39.717966700 -105.110779488  1735.8213   1   9   0.0045   0.0032   0.0098  -0.0015   0.0027  -0.0024  -4.00   46.0
2019/03/26 21:37:39.000   39.718027496 -105.110808019  1735.4307   1   9   0.0041   0.0030   0.0093  -0.0011   0.0028  -0.0018  -3.00   45.9
2019/03/26 21:37:40.000   39.718103248 -105.110841338  1734.8941   1   9   0.0041   0.0030   0.0093  -0.0011   0.0028  -0.0018  -2.00   45.9
2019/03/26 21:37:41.000   39.718184190 -105.110875794  1734.3184   1   9   0.0045   0.0033   0.0101  -0.0013   0.0030  -0.0019  -1.00   46.2
2019/03/26 21:37:42.000   39.718267742 -105.110910533  1733.7186   1   9   0.0035   0.0026   0.0077  -0.0011   0.0022  -0.0019   0.00   46.5
2019/03/26 21:37:43.000   39.718353556 -105.110945368  1733.0952   1   9   0.0044   0.0032   0.0097  -0.0016   0.0026  -0.0026  -4.00   46.6
2019/03/26 21:37:44.000   39.718433629 -105.110978953  1732.7961   1   9   0.0040   0.0029   0.0088  -0.0014   0.0024  -0.0024  -3.00   47.2
2019/03/26 21:37:45.000   39.718479301 -105.110997872  1732.8969   1   9   0.0040   0.0029   0.0088  -0.0014   0.0024  -0.0024  -2.00   47.6
2019/03/26 21:37:46.000   39.718493249 -105.111006328  1733.2714   1   9   0.0044   0.0032   0.0095  -0.0016   0.0025  -0.0028  -1.00    4.3
2019/03/26 21:37:47.000   39.718484852 -105.111007794  1733.4701   1   9   0.0035   0.0025   0.0075  -0.0012   0.0020  -0.0021   0.00    5.1
2019/03/26 21:37:48.000   39.718454666 -105.111004057  1733.0668   1   9   0.0044   0.0032   0.0095  -0.0016   0.0025  -0.0028  -4.00    5.8
2019/03/26 21:37:49.000   39.718402646 -105.110992690  1732.1260   1   9   0.0040   0.0029   0.0087  -0.0014   0.0023  -0.0025  -3.00    6.5
2019/03/26 21:37:50.000   39.718333156 -105.110975684  1731.2097   1   9   0.0040   0.0029   0.0087  -0.0014   0.0023  -0.0025  -2.00    7.4
2019/03/26 21:37:51.000   39.718253715 -105.110958708  1730.6350   1   9   0.0044   0.0032   0.0095  -0.0016   0.0025  -0.0028  -1.00    8.0
2019/03/26 21:37:52.000   39.718174409 -105.110942137  1730.1545   1   9   0.0035   0.0025   0.0075  -0.0012   0.0020  -0.0021   0.00    8.9
2019/03/26 21:37:53.000   39.718093709 -105.110925559  1729.6536   1   9   0.0044   0.0032   0.0095  -0.0016   0.0025  -0.0028  -4.00    9.5
2019/03/26 21:37:54.000   39.718010994 -105.110909038  1729.0797   1   9   0.0040   0.0029   0.0087  -0.0014   0.0023  -0.0025  -3.00   10.3
2019/03/26 21:37:55.000   39.717929888 -105.110890782  1728.4559   1   9   0.0040   0.0029   0.0087  -0.0014   0.0023  -0.0025  -2.00   11.1
2019/03/26 21:37:56.000   39.717849811 -105.110874815  1727.9205   1   9   0.0044   0.0032   0.0095  -0.0016   0.0025  -0.0028  -1.00   11.7
2019/03/26 21:37:57.000   39.717796329 -105.110865816  1727.4894   1   9   0.0035   0.0025   0.0075  -0.0012   0.0020  -0.0021   0.00   12.4
2019/03/26 21:37:58.000   39.717770785 -105.110857515  1727.2447   1   9   0.0044   0.0032   0.0095  -0.0016   0.0025  -0.0028  -4.00   13.1
2019/03/26 21:37:59.000   39.717772946 -105.110858336  1727.1445   1   9   0.0040   0.0029   0.0087  -0.0014   0.0023  -0.0025  -3.00   13.7
2019/03/26 21:38:00.000   39.717792306 -105.110860551  1727.1578   1   9   0.0040   0.0029   0.0087  -0.0014   0.0023  -0.0025  -2.00   14.4
2019/03/26 21:38:01.000   39.717821127 -105.110863257  1727.2120   1   9   0.0044   0.0032   0.0095  -0.0016   0.0025  -0.0028  -1.00   15.1
2019/03/26 21:38:02.000   39.717857675 -105.110869485  1727.2759   1   9   0.0035   0.0025   0.0075  -0.0012   0.0020  -0.0021   0.00   15.8
2019/03/26 21:38:03.000   39.717897456 -105.110878273  1727.3027   1   9   0.0044   0.0032   0.0095  -0.0016   0.0025  -0.0028  -4.00   16.6
2019/03/26 21:38:04.000   39.717938734 -105.110886483  1727.2425   1   9   0.0040   0.0029   0.0087  -0.0014   0.0023  -0.0025  -3.00   17.3
2019/03/26 21:38:05.000   39.717980826 -105.110894620  1727.2709   1   9   0.0040   0.0029   0.0087  -0.0014   0.0023  -0.0025  -2.00   18.2
2019/03/26 21:38:06.000   39.718023038 -105.110902369  1727.3723   1   9   0.0044   0.0032   0.0095  -0.0016   0.0025  -0.0028  -1.00   18.9
2019/03/26 21:38:07.000   39.718065042 -105.110909286  1727.3619   1   9   0.0035   0.0025   0.0075  -0.0012   0.0020  -0.0021   0.00   19.6
2019/03/26 21:38:08.000   39.718108194 -105.110915758  1727.3385   1   9   0.0044   0.0032   0.0095  -0.0016   0.0025  -0.0028  -4.00   20.2
2019/03/26 21:38:09.000   39.718152279 -105.110922199  1727.2384   1   9   0.0040   0.0029   0.0087  -0.0014   0.0023  -0.0025  -3.00   20.8
2019/03/26 21:38:10.000   39.718197971 -105.110928200  1727.2035   1   9   0.0040   0.0029   0.0087  -0.0014   0.0023  -0.0025  -2.00   21.5
2019/03/26 21:38:11.000   39.718244465 -105.110934617  1727.2055   1   9   0.0044   0.0032   0.0095  -0.0016   0.0025  -0.0028  -1.00   22.1
2019/03/26 21:38:12.000   39.718291619 -105.110941375  1727.2392   1   9   0.0035   0.0025   0.0075  -0.0012   0.0020  -0.0021   0.00   22.7
2019/03/26 21:38:13.000   39.718338495 -105.110949017  1727.2604   1   9   0.0044   0.0032   0.0095  -0.0016   0.0025  -0.0028  -4.00   23.4
2019/03/26 21:38:14.000   39.718384636 -105.110956542  1727.2603   1   9   0.0040   0.0029   0.0087  -0.0015   0.0023  -0.0025  -3.00   23.9
2019/03/26 21:38:15.000   39.718430842 -105.110965008  1727.2991   1   9   0.0040   0.0029   0.0087  -0.0015   0.0023  -0.0025  -2.00   24.6
2019/03/26 21:38:16.000   39.718476089 -105.110973656  1727.3800   1   9   0.0044   0.0032   0.0095  -0.0016   0.0025  -0.0028  -1.00   25.0
2019/03/26 21:38:17.000   39.718519923 -105.110980935  1727.4226   1   9   0.0035   0.0025   0.0075  -0.0012   0.0020  -0.0021   0.00   25.6
2019/03/26 21:38:18.000   39.718563619 -105.110987999  1727.4517   1   9   0.0044   0.0032   0.0095  -0.0016   0.0025  -0.0027  -4.00   26.0
2019/03/26 21:38:19.000   39.718607610 -105.110995021  1727.4657   1   9   0.0040   0.0029   0.0087  -0.0015   0.0023  -0.0025  -3.00   26.5
2019/03/26 21:38:20.000   39.718651016 -105.111002362  1727.4557   1   9   0.0040   0.0029   0.0087  -0.0015   0.0023  -0.0025  -2.00   27.0
2019/03/26 21:38:21.000   39.718693592 -105.111008820  1727.3980   1   9   0.0044   0.0032   0.0095  -0.0016   0.0025  -0.0027  -1.00   27.5
2019/03/26 21:38:22.000   39.718736626 -105.111014996  1727.3741   1   9   0.0035   0.0025   0.0075  -0.0012   0.0020  -0.0021   0.00   28.1
2019/03/26 21:38:23.000   39.718780290 -105.111022649  1727.3842   1   9   0.0044   0.0032   0.0095  -0.0016   0.0025  -0.0027  -4.00   28.6
2019/03/26 21:38:24.000   39.718824239 -105.111030407  1727.3191   1   9   0.0040   0.0029   0.0087  -0.0015   0.0023  -0.0025  -3.00   29.1
2019/03/26 21:38:25.000   39.718868568 -105.111035985  1727.2727   1   9   0.0040   0.0029   0.0087  -0.0015   0.0023  -0.0025  -2.00   29.6
2019/03/26 21:38:26.000   39.718913246 -105.111042479  1727.2650   1   9   0.0044   0.0032   0.0095  -0.0016   0.0025  -0.0027  -1.00   30.0
2019/03/26 21:38:27.000   39.718958024 -105.111048122  1727.3354   1   9   0.0035   0.0025   0.0075  -0.0012   0.0020  -0.0021   0.00   30.7
2019/03/26 21:38:28.000   39.719002719 -105.111054181  1727.3899   1   9   0.0044   0.0032   0.0095  -0.0016   0.0025  -0.0027  -4.00   31.1
2019/03/26 21:38:30.000   39.719093616 -105.111065252  1727.4310   1   9   0.0040   0.0029   0.0087  -0.0015   0.0023  -0.0025  -2.00   31.8
2019/03/26 21:38:31.000   39.719138524 -105.111071141  1727.4444   1   9   0.0044   0.0032   0.0095  -0.0016   0.0025  -0.0027  -1.00   32.3
2019/03/26 21:38:32.000   39.719182416 -105.111078476  1727.4654   1   9   0.0035   0.0025   0.0075  -0.0012   0.0020  -0.0021   0.00   33.0
2019/03/26 21:38:33.000   39.719225342 -105.111086952  1727.4575   1   9   0.0044   0.0032   0.0095  -0.0016   0.0025  -0.0027  -4.00   33.6
2019/03/26 21:38:34.000   39.719267317 -105.111095836  1727.4364   1   9   0.0040   0.0029   0.0087  -0.0015   0.0023  -0.0025  -3.00   34.3
2019/03/26 21:38:35.000   39.719309307 -105.111103893  1727.4068   1   9   0.0040   0.0029   0.0087  -0.0015   0.0023  -0.0025  -2.00   34.8
2019/03/26 21:38:36.000   39.719352689 -105.111110720  1727.3877   1   9   0.0044   0.0032   0.0095  -0.0016   0.0025  -0.0027  -1.00   35.4
2019/03/26 21:38:37.000   39.719397178 -105.111116170  1727.3236   1   9   0.0035   0.0025   0.0075  -0.0012   0.0020  -0.0021   0.00   36.1
2019/03/26 21:38:38.000   39.719441786 -105.111121138  1727.3153   1   9   0.0044   0.0032   0.0095  -0.0016   0.0025  -0.0027  -4.00   36.9
2019/03/26 21:38:39.000   39.719485991 -105.111125544  1727.3308   1   9   0.0040   0.0029   0.0087  -0.0015   0.0023  -0.0025  -3.00   37.3
2019/03/26 21:38:40.000   39.719529859 -105.111129933  1727.3163   1   9   0.0040   0.0029   0.0087  -0.0015   0.0023  -0.0025  -2.00   37.7
2019/03/26 21:38:41.000   39.719573388 -105.111135243  1727.3092   1   9   0.0044   0.0032   0.0095  -0.0017   0.0025  -0.0027  -1.00   38.2
2019/03/26 21:38:42.000   39.719617025 -105.111142569  1727.2673   1   9   0.0035   0.0025   0.0075  -0.0012   0.0020  -0.0021   0.00   38.1
2019/03/26 21:38:43.000   39.719661104 -105.111150487  1727.3002   1   9   0.0044   0.0032   0.0095  -0.0017   0.0025  -0.0027  -4.00   38.4
2019/03/26 21:38:44.000   39.719705877 -105.111157829  1727.3237   1   9   0.0040   0.0029   0.0087  -0.0015   0.0023  -0.0025  -3.00   38.8
2019/03/26 21:38:45.000   39.719748946 -105.111166275  1727.3681   1   9   0.0040   0.0029   0.0087  -0.0015   0.0023  -0.0025  -2.00   39.1
2019/03/26 21:38:46.000   39.719767297 -105.111189982  1727.2432   1   9   0.0044   0.0032   0.0095  -0.0017   0.0025  -0.0027  -1.00   39.7
2019/03/26 21:38:47.000   39.719775525 -105.111235378  1726.8938   1   9   0.0035   0.0025   0.0075  -0.0012   0.0020  -0.0021   0.00   40.4
2019/03/26 21:38:48.000   39.719781691 -105.111282165  1726.4658   1   9   0.0044   0.0032   0.0095  -0.0017   0.0025  -0.0027  -4.00   40.9
2019/03/26 21:38:49.000   39.719785156 -105.111331485  1726.1043   1   9   0.0040   0.0029   0.0087  -0.0015   0.0023  -0.0025  -3.00   41.3
2019/03/26 21:38:50.000   39.719787814 -105.111382552  1725.8642   1   9   0.0040   0.0029   0.0087  -0.0015   0.0023  -0.0025  -2.00   41.9
2019/03/26 21:38:51.000   39.719789055 -105.111434841  1725.7332   1   9   0.0044   0.0032   0.0095  -0.0017   0.0025  -0.0027  -1.00   42.1
2019/03/26 21:38:52.000   39.719784643 -105.111473710  1725.6193   1   9   0.0035   0.0025   0.0075  -0.0012   0.0021  -0.0021   0.00   42.5
2019/03/26 21:38:53.000   39.719757747 -105.111486229  1725.6793   1   9   0.0044   0.0032   0.0095  -0.0017   0.0025  -0.0027  -4.00   43.0
2019/03/26 21:38:54.000   39.719722479 -105.111493545  1725.8967   1   9   0.0040   0.0029   0.0087  -0.0015   0.0023  -0.0025  -3.00   43.5
2019/03/26 21:38:55.000   39.719683167 -105.111495955  1726.0385   1   9   0.0040   0.0029   0.0087  -0.0015   0.0023  -0.0025  -2.00   43.9
2019/03/26 21:38:56.000   39.719641685 -105.111493581  1726.1210   1   9   0.0044   0.0032   0.0095  -0.0017   0.0025  -0.0027  -1.00   44.1
2019/03/26 21:38:57.000   39.719600215 -105.111489494  1726.1802   1   9   0.0035   0.0025   0.0075  -0.0012   0.0021  -0.0021   0.00   44.3
2019/03/26 21:38:58.000   39.719559014 -105.111483910  1726.1722   1   9   0.0044   0.0032   0.0095  -0.0017   0.0025  -0.0027  -4.00   44.7
2019/03/26 21:38:59.000   39.719517691 -105.111476343  1726.1125   1   9   0.0040   0.0029   0.0087  -0.0015   0.0023  -0.0025  -3.00   45.1
2019/03/26 21:39:00.000   39.719476691 -105.111467422  1726.0147   1   9   0.0040   0.0029   0.0087  -0.0015   0.0023  -0.0025  -2.00   45.7
2019/03/26 21:39:01.000   39.719435655 -105.111458376  1725.9262   1   9   0.0044   0.0032   0.0095  -0.0017   0.0025  -0.0027  -1.00   46.0
2019/03/26 21:39:02.000   39.719393465 -105.111450371  1725.8937   1   9   0.0035   0.0025   0.0075  -0.0012   0.0021  -0.0021   0.00   46.4
2019/03/26 21:39:03.000   39.719350268 -105.111443924  1725.9195   1   9   0.0044   0.0032   0.0095  -0.0017   0.0025  -0.0027  -4.00   46.8
2019/03/26 21:39:04.000   39.719306996 -105.111437603  1725.9843   1   9   0.0040   0.0029   0.0087  -0.0015   0.0023  -0.0025  -3.00   47.4
2019/03/26 21:39:05.000   39.719263505 -105.111430631  1726.0024   1   9   0.0040   0.0029   0.0087  -0.0015   0.0023  -0.0025  -2.00   47.8
2019/03/26 21:39:06.000   39.719220607 -105.111422183  1725.9912   1   9   0.0044   0.0032   0.0095  -0.0017   0.0025  -0.0027  -1.00   48.4
2019/03/26 21:39:07.000   39.719177696 -105.111413863  1725.9605   1   9   0.0035   0.0025   0.0075  -0.0012   0.0021  -0.0021   0.00   49.2
2019/03/26 21:39:08.000   39.719134318 -105.111406074  1725.9332   1   9   0.0044   0.0032   0.0095  -0.0017   0.0025  -0.0027  -4.00   49.8
2019/03/26 21:39:10.000   39.719050090 -105.111386879  1725.9121   1   9   0.0040   0.0029   0.0087  -0.0015   0.0023  -0.0025  -2.00   50.1
2019/03/26 21:39:11.000   39.719008593 -105.111378437  1725.8476   1   9   0.0044   0.0032   0.0095  -0.0017   0.0025  -0.0027  -1.00   50.5
2019/03/26 21:39:12.000   39.718966595 -105.111371695  1725.8149   1   9   0.0035   0.0026   0.0075  -0.0012   0.0021  -0.0021   0.00   50.7
2019/03/26 21:39:13.000   39.718923699 -105.111366359  1725.8138   1   9   0.0044   0.0032   0.0095  -0.0017   0.0025  -0.0027  -4.00   51.3
